,bike_id,bus_id,bus_name,경도,위도
0,[1691],11193,온곡중학교노원정보도서관,127.064393,37.659201
1,[4003],11208,상계초등학교,127.065774,37.657587
2,[1637 1653],11210,노원역9번출구,127.061986,37.656087
3,[],11244,상계주공3단지,127.060908,37.652096
4,[1636],11245,상계주공2단지,127.06162,37.649637
5,[1668],11246,상계주공1단지,127.06283,37.647128
6,[1669 2921],11366,중계역,127.064435,37.643864
7,[1650 2919 4036],11367,노원구민의전당,127.066418,37.639391
8,[1616 4007 4036],11447,하계역,127.067663,37.636667
9,[1616],11448,하계장미아파트,127.068804,37.634079
10,[],11160,서울과학기술대입구,127.071466,37.628291
11,[1608],11162,공릉역4번출구,127.072276,37.62675
12,[2910],11102,공릉시장,127.073621,37.623116
13,[1606 1684],11104,태릉입구역3번출구,127.074841,37.619425
14,[1606 1643 1684],11105,태릉입구역,127.074534,37.617431
15,[2909],11312,한진한화그랑빌아파트,127.069232,37.615805
16,[1381 2909],11284,석계역2번출구,127.066973,37.615274
17,[1332 1381 1601],11481,석계역1번출구.B,127.065038,37.614716
18,[1334],8145,석관동주민센터,127.06158,37.613534
19,[1333 4408],8143,장위동동원베네스트.온누리병원,127.058963,37.612042
20,[4408],8209,돌곶이역,127.057558,37.610205
21,[],8211,석관시장,127.05907,37.60869
22,[1390],8213,석관동새마을금고,127.060227,37.607572
23,[1390],8215,한국예술종합학교,127.061829,37.605647
24,[],6130,의릉입구,127.061923,37.603876
25,[],6128,이문동우체국,127.061746,37.599388
26,[634],6126,외대앞,127.059606,37.595628
27,[680],6124,경희중고,127.057905,37.593091
28,[680],6122,회기시장,127.056639,37.591203
29,[],6320,회기동현대아파트,127.054365,37.589058
30,[635],6014,떡전교사거리.동대문노인복지관,127.052109,37.586498
31,[],6021,청량리미주아파트.동대문세무서,127.048395,37.58278
32,[633 677],6015,청량리역환승센타,127.045431,37.580403
33,[],6022,청량리.청과물도매시장,127.040712,37.578782
34,[659],6024,제기동역.서울약령시,127.035334,37.578196
35,[],6026,용두동사거리.한국의류시험연구원,127.028388,37.577146
36,[363 613 671],6028,신설동역,127.023843,37.575827
37,[456],1044,동묘앞,127.019672,37.574243
38,[3415],1037,동대문(흥인지문),127.012046,37.571953
39,[344 455 457],1288,종로중부새마을금고,127.006591,37.572417
40,[ 474 4765],2173,동대문역사문화공원,127.008356,37.567354
41,[ 347  474 4793],2170,광희동,127.00721,37.565053
42,[ 371  430  479 4779],2204,장충동.동국대입구,127.005629,37.560666
43,[381],2202,장충체육관앞,127.007828,37.558002
44,[382],2223,약수역10번출구,127.009322,37.556256
45,[ 372  382  480 4777],2195,약수역8번출구.신당사회복지관,127.009957,37.553865
46,[429],2198,송도병원앞,127.007398,37.550227
47,[483],2236,버티고개,127.006024,37.547804
48,[],3158,장충단로입구,127.002202,37.545795
49,[ 802 4611],3161,서울시중부기술교육원.블루스퀘어,127.003178,37.541175
50,[ 864 4610],3165,순천향대학병원.한남오거리,127.005729,37.535491
51,[2504],22015,신사역.푸른저축은행,127.019939,37.514489
52,[],22013,논현역,127.023032,37.507226
53,[],22011,지하철2호선강남역,127.025438,37.501817
54,[2407],23287,강남역.역삼세무서,127.029148,37.498136
55,[2410],23288,역삼역.포스코타워역삼,127.03379,37.499572
56,[2349],23305,한서병원,127.038818,37.501137
57,[2328 2329 2357],23306,한국자산신탁.센터필드,127.044247,37.502783
58,[2332],23259,선릉역,127.050462,37.504761
59,[2319 2369],23260,포스코빌딩,127.054803,37.506043
60,[2322 2355],23251,한국무역센터.삼성역,127.061664,37.508107
61,[],23473,강남경찰서.강남운전면허시험장,127.066009,37.509504
62,[1205],24154,잠실종합운동장,127.072816,37.510419
63,[1206 1224 2637],24157,종합운동장사거리,127.079555,37.511613
64,[1222 2635],24158,잠실새내역4번출구,127.084495,37.511407
65,[1269],24145,잠실트리지움아파트앞,127.091202,37.511512
66,[1232],24146,잠실역.롯데월드,127.098196,37.512412
67,[],24004,석촌호수.한솔병원,127.105252,37.507105
68,[],24006,석촌역,127.108454,37.503663
69,[1212 4864],24008,송파역,127.111233,37.500599
70,[2658],24010,가락시장.가락시장역,127.116492,37.494739
71,[2615],24012,문정로데오거리입구,127.120775,37.48901
72,[4465],24014,문정법조단지.건영아파트,127.123873,37.48309
73,[1245 4491],24016,장지역.가든파이브,127.125472,37.479907
74,[2605 2607],24658,복정역환승주차장,127.128144,37.470728
75,[2605 2607],24503,복정역환승센터3번승강장,127.12759,37.46993
76,[1245 1246 4491],24015,장지역.가든파이브,127.126124,37.479043
77,[4465],24013,문정법조단지.건영아파트,127.124748,37.482125
78,[2615],24011,문정로데오거리입구,127.121363,37.488365
79,[1201 2658 4854],24009,가락시장.가락시장역,127.117161,37.494382
80,[1212],24007,송파역,127.111838,37.500208
81,[],24005,석촌역,127.108944,37.503408
82,[1251 2639],24003,석촌호수.한솔병원,127.105826,37.5068
83,[1231 1232],24138,잠실역.롯데월드,127.097946,37.512899
84,[1233],24139,잠실5단지,127.093914,37.512213
85,[1222 2635],24141,잠실새내역.잠실2동주민센터,127.087281,37.511772
86,[1222],24142,잠실엘스아파트앞,127.08339,37.511871
87,[1206 1224 2637],24143,종합운동장사거리,127.079692,37.512009
88,[1205],24144,잠실종합운동장,127.072073,37.511118
89,[],23196,강남경찰서면허시험장,127.0658,37.509946
90,[2316 2322 2355],23201,한국무역센터.삼성역,127.061701,37.508667
91,[2319 2348],23217,포스코건너편,127.055427,37.506683
92,[2332],23218,선릉역,127.050205,37.505143
93,[2328 2329 2357],23277,서울상록회관.한국기술센터,127.044057,37.503232
94,[2349],23280,아가방빌딩.하나은행,127.038633,37.501541
95,[2410 2430],23283,역삼역,127.035079,37.500442
96,[2407],23284,강남역12번출구,127.029839,37.498829
97,[],22012,지하철2호선강남역,127.02637,37.500785
98,[2302 2542],22014,논현역,127.023728,37.506367
99,[2303],22016,신사역,127.020607,37.512972
100,[],3166,한남5거리,127.008338,37.532866
101,[ 864 4610],3162,순천향대학병원,127.00573,37.536442
102,[ 802 4611],3160,서울중부기술교육원.블루스퀘어,127.00354,37.541578
103,[483],2237,버티고개,127.005818,37.547498
104,[429],2197,송도병원앞,127.007719,37.550268
105,[4777],2196,약수역7번출구.약수동주민센터,127.009298,37.552851
106,[382],2199,약수역1번출구,127.009687,37.556408
107,[381 479],2201,장충체육관앞,127.007784,37.558481
108,[ 371  430  479 4779],2203,장충동.동국대입구,127.00591,37.560621
109,[ 347  474  476 4793],2171,광희동,127.007958,37.564995
110,[ 346  474 4765],2174,동대문역사문화공원,127.009023,37.567604
111,[3401],1023,동대문역.흥인지문,127.013451,37.572302
112,[456],1041,동묘앞,127.018451,37.573726
113,[363 613 671],6027,신설동역,127.025045,37.57615
114,[614],6025,용두동사거리,127.029988,37.577532
115,[660],6023,제기동역.서울약령시,127.037624,37.578139
116,[],6426,청량리수산시장,127.041895,37.578952
117,[633 677],6019,청량리역환승센터,127.045702,37.580406
118,[],6114,서울성심병원,127.050898,37.584607
119,[],6321,우산빌딩앞,127.054677,37.588882
120,[680],6123,회기시장,127.056742,37.590966
121,[680],6125,경희중고,127.058335,37.593347
122,[634],6127,외대앞,127.059768,37.595481
123,[],6129,이문동교회,127.062128,37.600102
124,[],6131,의릉입구,127.062176,37.603485
125,[1390],8216,한국예술종합학교,127.062102,37.605537
126,[1390],8214,석관동새마을금고,127.060938,37.607272
127,[1333],8212,석관시장,127.059236,37.608816
128,[1333 4408],8141,돌곶이역,127.058386,37.611319
129,[1334],8144,석관동주민센터,127.062051,37.61339
130,[1332 1381 2909],8147,석계역,127.067255,37.615003
131,[1606 1684],11103,태릉입구역4번출구,127.0752,37.619589
132,[2910],11101,공릉시장,127.074178,37.622741
133,[1608 4041],11161,공릉역1번출구,127.072786,37.626579
134,[],11159,서울과학기술대입구,127.071801,37.628474
135,[1616],11417,하계미성아파트,127.068966,37.634849
136,[1616 4007 4036],11416,하계역,127.068213,37.636572
137,[1650 2919],11374,서울시립북서울미술관,127.066392,37.640586
138,[1669],11373,중계역,127.065326,37.642974
139,[1636 1678],11257,백병원,127.062882,37.648018
140,[1636],11256,상계주공4단지,127.061765,37.650775
141,[1673],11255,상계주공6단지,127.061145,37.653184
142,[1690],11185,도봉면허시험장,127.059966,37.657447
143,[1686],11183,상계주공7단지,127.059114,37.660367
144,[],11188,상계주공7단지.광림교회앞,127.062782,37.660497
145,[1537],9104,우이동성원아파트,127.013357,37.662045
146,[1537 1572],9286,우이동도선사입구,127.01273,37.663105
147,[],10342,한국사회봉사회,127.014759,37.661814
148,[],10184,연산군.정의공주묘,127.022975,37.661886
149,[1723 1768 4075],10186,방학동신동아타워,127.028111,37.66168
150,[1767],10189,방학동신동아아파트,127.031383,37.661983
151,[1767],10191,국민은행방학지점,127.034334,37.662332
152,[],10193,신한은행방학동지점,127.037002,37.662655
153,[1733 4062],10195,방학사거리,127.040497,37.662672
154,[1733 4062],10304,정병원,127.04192,37.661947
155,[],10011,도봉보건소,127.040762,37.658936
156,[1707],10013,도봉구민회관.도봉문화원,127.038174,37.65456
157,[1709 1765],10015,쌍문역,127.034769,37.648817
158,[1741 1754],10017,우이1교앞,127.032652,37.645293
159,[],9001,수유3동우체국,127.029043,37.641242
160,[1503 1513 1552 1569],9013,수유(강북구청)역,127.0261,37.638477
161,[1535 1565],9003,수유역,127.024117,37.636659
162,[1529],9005,수유시장.성신여대미아캠퍼스앞,127.024172,37.631226
163,[1501],9007,미아역.신일중고,127.026649,37.62487
164,[1560],9009,도봉세무서.성북시장,127.028719,37.619714
165,[1531 1546],9011,미아사거리역,127.029933,37.613762
166,[],8001,월곡뉴타운,127.028209,37.606906
167,[1318 1348 1367],8003,길음뉴타운,127.024168,37.603626
168,[1393],8005,미아리고개.미아리예술극장,127.021709,37.598811
169,[1384 1386],8007,돈암사거리.성신여대입구,127.018131,37.593743
170,[1336],8175,삼선동주민센터,127.014347,37.590611
171,[1305 1355],8177,성북구청.성북경찰서,127.017259,37.588243
172,[1338 1362],8179,보문역,127.018921,37.585851
173,[1363],8181,보문동성당,127.020796,37.582396
174,[],8183,보문동주민센터,127.021863,37.580451
175,[363 613 671],1243,신설동로터리,127.02278,37.575929
176,[456],1044,동묘앞,127.019672,37.574243
177,[3415],1037,동대문(흥인지문),127.012046,37.571953
178,[452 455 457],1022,종로6가.동대문종합시장,127.005714,37.571127
179,[338 339 453],1020,종로5가.광장시장,126.999335,37.570881
180,[ 338  397 3411 3412],1018,종로4가.종묘,126.995284,37.570627
181,[ 328  334  335 3432],1016,종로3가.탑골공원,126.989988,37.570361
182,[ 328  454 3432],1014,종로2가,126.986247,37.570257
183,[ 318  320  433 4762 4774],2246,을지로입구역.광교,126.982474,37.567558
184,[4774],2140,롯데백화점,126.982065,37.564492
185,[],2127,북창동.남대문시장,126.97792,37.561175
186,[445 485 444],2008,숭례문,126.973778,37.558639
187,[ 379  442 4760],2004,서울역버스환승센터,126.972356,37.555446
188,[820],3012,갈월동,126.971708,37.549534
189,[828 838],3010,숙대입구역,126.972232,37.543756
190,[ 848  849 4620],3008,삼각지역,126.974161,37.535985
191,[817],3006,KT용산지사,126.970564,37.53205
192,[ 853 4633],3004,신용산역,126.966619,37.52792
193,[4619 4629],3002,한강대교북단.LG유플러스,126.963185,37.524306
194,[ 869  870 4605],3340,노들섬,126.958593,37.517671
195,[2002],20014,노들역,126.950962,37.512734
196,[2058 2070],20012,노량진역,126.944711,37.513833
197,[2050],20240,동작구청정문,126.940062,37.512377
198,[],20190,동작구청.노량진초등학교앞,126.940037,37.510373
199,[],20192,장성교회,126.939968,37.508211
200,[2013 2020],20151,장승배기역,126.938522,37.504676
201,[],20150,상도초등학교입구,126.935768,37.50296
202,[2015],20147,성대시장,126.930909,37.499996
203,[4169],20186,신대방삼거리,126.927841,37.497775
204,[],20188,보라매병원입구,126.927191,37.494757
205,[2173],21151,롯데백화점관악점,126.927401,37.490193
206,[2175],21152,패션문화의거리입구,126.929003,37.486635
207,[2164 2195 3807],21262,관악우체국.양지병원,126.933148,37.484452
208,[2109 2137 2195 3807],21118,KT&G관악지점,126.936125,37.484533
209,[2108 2169 2189],21119,봉천역.관악초등학교,126.943247,37.482009
210,[2112 3812],21120,KT관악지점,126.948461,37.481483
211,[2111],21121,봉천사거리,126.954698,37.480266
212,[2186 2198 2199 3810],21122,낙성대동,126.957505,37.479184
213,[2122 2186 3813 3304],21123,낙성대입구,126.960887,37.477844
214,[2165 2167 3305],21124,인헌중고.서울미술고,126.966516,37.475682
215,[],21125,예술인마을.사당초등학교,126.973989,37.47593
216,[3815],21126,남서울농협남현동지점,126.977301,37.476371
217,[2034 2104],21161,사당역4번출구,126.981359,37.475541
218,[2223],21027,사당자동차학원,126.982781,37.472236
219,[2289],21163,남태령역,126.987784,37.46557
220,[2289],22026,남태령역,126.988088,37.465695
221,[2104],22028,사당역,126.981803,37.474927
222,[3815],20141,사당1동관악시장앞,126.977952,37.47679
223,[],20142,예술인마을,126.972845,37.476049
224,[2165 2167 3305],21101,서울미술고.인헌중고,126.965554,37.476466
225,[2122 2148 3813 3304],21102,낙성대입구,126.961876,37.47791
226,[2198 3810],21103,행운동주민센터,126.956869,37.479844
227,[2112 2116 2171 3311],21104,서울대입구역5번출구,126.951014,37.481628
228,[2179 3812],21105,KT관악지점,126.947311,37.481963
229,[2108 2169 2189],21106,봉천역.관악초등학교,126.943335,37.482367
230,[2137 2190 2196],21107,KT&G관악지점,126.937313,37.484475
231,[2164 2195 3807],21261,관악우체국(양지병원),126.933157,37.484848
232,[2135 2136 2175],21149,패션문화의거리입구,126.929553,37.486005
233,[2173],21150,보라매공원.보라매병원,126.927498,37.490517
234,[],21263,보라매삼성아파트.모자원고개,126.927398,37.494514
235,[2016 4169],20187,신대방삼거리,126.928229,37.498143
236,[2015],20148,성대시장,126.931597,37.500119
237,[],20149,상도초등학교입구,126.936766,37.503306
238,[2013],20193,청화병원,126.94008,37.507245
239,[],20191,동작구청.노량진초등학교앞,126.940337,37.510453
240,[2050 2058 2070],20114,노량진역,126.941757,37.513391
241,[2058 2070],20011,노량진역,126.943811,37.513733
242,[2003],20013,노들역,126.949256,37.512825
243,[ 869  870 4605],3341,노들섬,126.959038,37.517364
244,[ 829 4619 4629],3001,한강대교북단.LG유플러스,126.963192,37.52409
245,[ 853 4633],3003,신용산역,126.966207,37.527293
246,[],3005,KT용산지사,126.970235,37.531497
247,[ 848  849 4620],3007,삼각지역,126.974012,37.53527
248,[828 835 838],3009,숙대입구역,126.972538,37.543296
249,[807],3011,갈월동,126.972237,37.550976
250,[ 379 4760],2007,서울역버스환승센터.강우규의거터,126.972971,37.555614
251,[485 444],2122,숭례문,126.974044,37.55842
252,[324 470],2219,남대문시장앞.이회영활동터,126.97858,37.560939
253,[467],2142,롯데영프라자,126.982008,37.562885
254,[ 318  320  433 4762],2139,우리은행종로지점,126.982929,37.567519
255,[ 454 3408],1013,종로2가,126.985543,37.570139
256,[ 328  334  335 3432],1015,종로3가.탑골공원,126.989565,37.570245
257,[ 397 3411 3412],1017,종로4가.종묘,126.994722,37.570507
258,[338 339 397 453],1019,종로5가.광장시장,126.99885,37.570757
259,[ 452 3404 3414],1021,종로6가.동대문종합시장,127.003464,37.570962
260,[3401],1023,동대문역.흥인지문,127.013451,37.572302
261,[456],1041,동묘앞,127.018451,37.573726
262,[363 613 671],6107,신설동역1번출구,127.023317,37.57663
263,[ 672 1351],8184,보문동주민센터,127.022486,37.579835
264,[1363],8182,보문동성당,127.021116,37.582399
265,[1362 1363],8180,보문역,127.019989,37.584489
266,[1305 1337 1355],8178,성북구청.성북경찰서,127.01723,37.588605
267,[1336],8176,삼선동주민센터,127.014715,37.590692
268,[1384 1385 1386],8008,돈암사거리.성신여대입구,127.017839,37.593306
269,[1392 1393],8006,미아리고개.미아리예술극장,127.021821,37.597921
270,[1318 1348 1367],8004,길음뉴타운,127.023686,37.603182
271,[],8002,월곡뉴타운,127.027405,37.605978
272,[1531],9012,미아사거리역,127.030213,37.612894
273,[1560],9010,도봉세무서.성북시장,127.029248,37.618837
274,[],9008,미아역.신일중고,127.027135,37.62411
275,[1529],9006,수유시장.성신여대미아캠퍼스앞,127.024572,37.630531
276,[1569],9004,수유역.강북구청,127.025232,37.637489
277,[],9002,수유3동우체국,127.028665,37.640674
278,[1741],10018,우이1교앞,127.03242,37.644652
279,[1754],10016,쌍문역,127.03446,37.648071
280,[1707],10014,도봉구민회관.도봉문화원,127.037977,37.653968
281,[1708],10012,도봉보건소.북한산아이파크아파트,127.040517,37.658205
282,[1733 4062],10196,방학사거리,127.040581,37.662935
283,[],10194,신한은행방학동지점,127.036807,37.662933
284,[1767],10192,국민은행방학지점,127.034113,37.662595
285,[1767],10190,방학동신동아아파트,127.03202,37.662362
286,[1723 1768 4075],10187,방학동신동아타워,127.028692,37.662028
287,[],10185,연산군정의공주묘,127.023145,37.662002
288,[1703],10340,도봉산역광역환승센터,127.044352,37.689948
289,[1703 1730],10001,도봉산역,127.045431,37.689195
290,[1729],10003,도봉한신아파트,127.045946,37.684052
291,[1728 1735],10005,서울북부지방법원.검찰청.도봉역성황당,127.044921,37.677775
292,[1719],10007,신도봉사거리,127.044147,37.673289
293,[1748],10019,신도봉시장.도봉구청.방학북부역,127.043577,37.669999
294,[1706 1732 1744 1746],10009,도봉소방서.방학남부역,127.042981,37.666333
295,[],10011,도봉보건소,127.040762,37.658936
296,[1707],10013,도봉구민회관.도봉문화원,127.038174,37.65456
297,[1709 1765],10015,쌍문역,127.034769,37.648817
298,[1741 1754],10017,우이1교앞,127.032652,37.645293
299,[],9001,수유3동우체국,127.029043,37.641242
300,[1503 1513 1552 1569],9013,수유(강북구청)역,127.0261,37.638477
301,[1535 1565],9003,수유역,127.024117,37.636659
302,[1529],9005,수유시장.성신여대미아캠퍼스앞,127.024172,37.631226
303,[1501],9007,미아역.신일중고,127.026649,37.62487
304,[1560],9009,도봉세무서.성북시장,127.028719,37.619714
305,[1531 1546],9011,미아사거리역,127.029933,37.613762
306,[],8001,월곡뉴타운,127.028209,37.606906
307,[1318 1348 1367],8003,길음뉴타운,127.024168,37.603626
308,[1393],8005,미아리고개.미아리예술극장,127.021709,37.598811
309,[1384 1386],8007,돈암사거리.성신여대입구,127.018131,37.593743
310,[1343],8009,삼선교.한성대학교,127.009232,37.589853
311,[ 340  388 3421],1228,혜화역.서울연극센터(장면총리가옥),127.001328,37.584023
312,[341 342],1221,혜화역.서울대병원입구,127.00194,37.581064
313,[342 355 356],1222,방송통신대.이화장,127.001994,37.57813
314,[343 355 356],1225,이화동(이화장),127.003271,37.575937
315,[343 344],1215,충신동,127.006279,37.574022
316,[393 457],1214,동대문,127.008413,37.571726
317,[ 474 4765],2173,동대문역사문화공원,127.008356,37.567354
318,[ 347  474 4793],2170,광희동,127.00721,37.565053
319,[380],2206,퇴계로6가,127.00334,37.563574
320,[4792],2208,퇴계로5가,126.999725,37.56278
321,[ 390 4792],2154,충무로역8번출구.대한극장앞,126.996492,37.562037
322,[336],2151,퇴계로3가.한옥마을.한국의집,126.991777,37.561251
323,[471],2150,퇴계로2가.명동역,126.984491,37.560893
324,[],2145,남대문시장.회현역,126.977765,37.558268
325,[485 444],2122,숭례문,126.974044,37.55842
326,[370],2128,시청앞,126.976574,37.562358
327,[4768  312  311],2286,시청앞.덕수궁,126.976836,37.566212
328,[370],2131,삼성본관앞,126.975908,37.562052
329,[445],2116,염천교,126.97336,37.55986
330,[384],2106,중림동교차로,126.969135,37.558384
331,[ 826 4794],2103,서울의료보건고등학교.서울역서부,126.967939,37.556552
332,[399],2102,손기정체육공원입구,126.966234,37.554446
333,[],2101,만리동고개,126.962658,37.551787
334,[4234],14145,한겨레신문사,126.958816,37.548147
335,[],14144,신덕성결교회,126.956317,37.545987
336,[ 144  145 4202],14141,공덕역.공덕시장,126.953135,37.544413
337,[146 147],14002,마포역,126.946785,37.540277
338,[210],19008,여의도환승센터,126.92467,37.526059
339,[214],19152,여의도공원,126.920262,37.523605
340,[ 274 3219],19006,영등포역,126.90703,37.516588
341,[291],19004,남부지방법원등기국.구로세무서(에이스하이테크시티),126.899746,37.51404
342,[],19002,문래동남성아파트,126.892312,37.511202
343,[1906 2824],17001,신도림역,126.889423,37.509752
344,[1974],17003,신도림동.구로역,126.883979,37.506002
345,[2823],17005,구일역.중앙유통상가,126.874605,37.499797
346,[1925 1928],17007,동양미래대학.구로성심병원,126.867998,37.499634
347,[1965],17009,개봉역.영화아파트,126.860602,37.496797
348,[1930],17011,경인중학교.개봉사거리,126.855521,37.497352
349,[1991],17170,오류1동주민센터.오류문화센터,126.844651,37.496531
350,[3918],17172,오류동역,126.842537,37.495602
351,[3915],17174,오류지구대.신오류주유소,126.839465,37.494265
352,[],17248,연세중앙교회,126.835981,37.493303
353,[1992],17180,궁동청소년문화의집,126.832986,37.493272
354,[],17182,우신고등학교,126.830847,37.4933
355,[1943],17184,온수역,126.82376,37.492802
356,[],17290,온수동종점,126.821379,37.491922
357,[1943],17185,온수역,126.824401,37.492777
358,[],17183,우신고등학교,126.830451,37.493063
359,[1992],17181,궁동청소년문화의집.구로검사소,126.833419,37.493088
360,[],17179,연세중앙교회,126.835423,37.493108
361,[3915 3918],17173,씨티월드,126.840493,37.494344
362,[1941 3918],17171,오류동역,126.843255,37.495553
363,[1991],17169,오류1동주민센터.오류문화센터,126.846142,37.496838
364,[1930],17012,경인중학교.개봉사거리,126.855132,37.497171
365,[1966],17010,개봉역.한마을아파트,126.862057,37.496477
366,[1925 1928],17008,동양미래대학.구로성심병원,126.867019,37.499376
367,[2823],17006,구일역.제일제당,126.874465,37.499587
368,[1974],17004,신도림동.구로역,126.883228,37.505344
369,[1906 2824],17002,신도림역,126.888464,37.509108
370,[],19001,문래동남성아파트,126.893705,37.511828
371,[],19003,남부지방법원등기국.구로세무서(에이스하이테크시티),126.901187,37.514484
372,[],19005,영등포역,126.905618,37.516012
373,[213],19161,전경련회관,126.918884,37.521891
374,[210],19007,여의도환승센터,126.924151,37.525472
375,[210],19284,파크원타워.LG트윈타워,126.927025,37.526956
376,[495],14001,마포역,126.947962,37.5409
377,[],14142,공덕시장,126.953997,37.544295
378,[],14143,신덕성결교회,126.956691,37.545941
379,[4234],14146,한겨레신문사,126.959089,37.548006
380,[],3227,만리동고개,126.962971,37.551716
381,[399],3228,손기정체육공원,126.966423,37.554215
382,[ 826 4794],2105,서울역서부,126.969277,37.556998
383,[ 379  442 4760],2005,서울역버스환승센터,126.972762,37.555388
384,[469 470],2146,남대문시장.회현역,126.978465,37.558492
385,[],2149,명동입구,126.985241,37.560654
386,[336],2152,퇴계로3가.한옥마을.한국의집,126.992171,37.560971
387,[390],2153,충무로역2번출구.대한극장앞,126.994918,37.561223
388,[4792],2207,퇴계로5가,126.999966,37.56238
389,[380],2205,퇴계로6가,127.003901,37.563401
390,[ 347  474  476 4793],2171,광희동,127.007958,37.564995
391,[ 346  474 4765],2174,동대문역사문화공원,127.009023,37.567604
392,[343 344],1217,충신동,127.006343,37.57446
393,[355 356],1277,이화동(이화장),127.002955,37.576257
394,[342 355 356],1219,방송통신대.이화장,127.002437,37.578043
395,[341 342],1220,혜화역.마로니에공원,127.002277,37.581119
396,[ 340  388 3421],1229,혜화역.동성중고(장면총리가옥),127.001718,37.58457
397,[1302 1306 1343],8010,삼선교.한성대학교.조소앙활동터,127.008374,37.589313
398,[1384 1385 1386],8008,돈암사거리.성신여대입구,127.017839,37.593306
399,[1392 1393],8006,미아리고개.미아리예술극장,127.021821,37.597921
400,[1318 1348 1367],8004,길음뉴타운,127.023686,37.603182
401,[],8002,월곡뉴타운,127.027405,37.605978
402,[1531],9012,미아사거리역,127.030213,37.612894
403,[1560],9010,도봉세무서.성북시장,127.029248,37.618837
404,[],9008,미아역.신일중고,127.027135,37.62411
405,[1529],9006,수유시장.성신여대미아캠퍼스앞,127.024572,37.630531
406,[1569],9004,수유역.강북구청,127.025232,37.637489
407,[],9002,수유3동우체국,127.028665,37.640674
408,[1741],10018,우이1교앞,127.03242,37.644652
409,[1754],10016,쌍문역,127.03446,37.648071
410,[1707],10014,도봉구민회관.도봉문화원,127.037977,37.653968
411,[1708],10012,도봉보건소.북한산아이파크아파트,127.040517,37.658205
412,[1706 1744 1746],10010,도봉소방서.방학남부역,127.043051,37.665677
413,[1732 1748],10020,신도봉시장.도봉구청.방학북부역,127.043757,37.669197
414,[1719],10008,신도봉사거리,127.044333,37.67275
415,[1728],10006,서울북부지방법원.검찰청.도봉역성황당,127.045103,37.677262
416,[1729],10004,도봉한신아파트,127.046067,37.682672
417,[1703 1730],10002,도봉산역,127.045813,37.688568
418,[1703],10341,도봉산역광역환승센터,127.044267,37.690177
419,[1200],16435,개화역광역환승센터,126.797978,37.57822
420,[1200],16170,개화역1번출구.개화검문소,126.799788,37.578494
421,[1178 5053],16287,개화산역,126.806083,37.572429
422,[1102],16285,방화사거리,126.810492,37.573086
423,[1102],16127,국민은행방화동지점,126.811341,37.572657
424,[],16125,방화2동우촌연립,126.811475,37.570023
425,[],16123,방화2동청성아파트앞,126.811615,37.566976
426,[1108 1109],16121,공항시장역.공항성산교회,126.811384,37.564746
427,[1108 1109 1150 3778],16119,공항시장,126.809075,37.562614
428,[1150 3778],16014,송정역,126.809596,37.561371
429,[3753 3774],16016,"공항중학교.마곡엠밸리9,10단지",126.815801,37.560725
430,[1151 1168 3758 3762],16023,강서세무서,126.821294,37.560256
431,[1152 1190 1191 5052 5055 5056 5057 5074],16019,마곡역,126.826072,37.55979
432,[1193 2720 5066],16022,마곡동로사거리,126.831822,37.559202
433,[1124 1153 3759 3760],16017,발산역,126.837611,37.558573
434,[1117 3764],16012,한국가스기술공사,126.843257,37.557872
435,[1182],16010,KBS스포츠월드,126.849233,37.556912
436,[1173],16008,강서구청사거리.서울디지털대학교,126.854084,37.555236
437,[],16006,등촌중학교.백석초등학교,126.860524,37.552865
438,[ 774 1170],16004,등촌역.강서보건소,126.8676,37.549411
439,[ 700  773 1169],16002,염창역.서울도시가스,126.875005,37.546964
440,[],19217,안양천입구,126.883667,37.547306
441,[227],19218,양평동한솔아파트,126.890347,37.543917
442,[],19214,양평한신아파트.선유도공원입구,126.894428,37.541649
443,[247 268],19172,당산역,126.900719,37.534589
444,[106],14011,합정역,126.912832,37.548874
445,[108],14013,서교동,126.919582,37.553637
446,[113 114],14015,홍대입구역,126.923196,37.556373
447,[115 493],14061,동교동삼거리,126.928459,37.55806
448,[ 128  129  130 3116],14062,신촌오거리.현대백화점,126.935893,37.555397
449,[136],14063,신촌오거리.2호선신촌역,126.940144,37.556066
450,[137 159 436],14064,이대역,126.944594,37.556613
451,[3100],14067,웨딩타운,126.951517,37.557092
452,[ 142 3104],14068,아현역,126.954747,37.557298
453,[ 180  198 3114],13045,충정로역,126.963492,37.561058
454,[171 173],13047,서대문역사거리,126.966565,37.565579
455,[ 300  307 4715],1007,서울역사박물관.경희궁앞,126.97038,37.569135
456,[303 306 308 309],1009,광화문,126.975251,37.570135
457,[316 368 385],1011,종로1가,126.980911,37.570118
458,[ 454 3408],1013,종로2가,126.985543,37.570139
459,[ 328  334  335 3432],1015,종로3가.탑골공원,126.989565,37.570245
460,[ 397 3411 3412],1017,종로4가.종묘,126.994722,37.570507
461,[338 339 397 453],1019,종로5가.광장시장,126.99885,37.570757
462,[ 452 3404 3414],1021,종로6가.동대문종합시장,127.003464,37.570962
463,[3401],1023,동대문역.흥인지문,127.013451,37.572302
464,[456],1041,동묘앞,127.018451,37.573726
465,[363 613 671],6027,신설동역,127.025045,37.57615
466,[614],6025,용두동사거리,127.029988,37.577532
467,[660],6023,제기동역.서울약령시,127.037624,37.578139
468,[],6426,청량리수산시장,127.041895,37.578952
469,[633 677],6016,청량리역환승센타,127.046077,37.580251
470,[],6114,서울성심병원,127.050898,37.584607
471,[],6117,휘경동입구,127.055061,37.587692
472,[670],6012,삼육서울병원,127.062068,37.589957
473,[ 650 4117],6010,중랑교,127.066923,37.591366
474,[1403 1461 1462 1473],7006,중랑역.동부시장,127.075097,37.593587
475,[1474 4804],7004,상봉역.중랑우체국,127.08286,37.595665
476,[1448 1478 4823],7002,망우역.상봉터미널,127.09035,37.597507
477,[1405 4813],7008,망우역.망우지구대,127.094871,37.598558
478,[4813],7010,우림시장.망우사거리,127.097916,37.5993
479,[1402],7306,능산지하차도,127.100638,37.600947
480,[1436],7305,신내새한아파트앞,127.101049,37.605838
481,[],7302,신내교회.신내데시앙아파트,127.101333,37.610541
482,[1421 1467],7337,중랑공영차고지,127.102023,37.613645
483,[1421 1465],7550,중랑공영차고지.신내역,127.103628,37.613209
484,[1421 1467],7418,중랑공영차고지.신내역,127.10212,37.613762
485,[],7303,신내교회.신내데시앙아파트,127.101015,37.610538
486,[1436],7304,신내초등학교,127.10075,37.606156
487,[],7307,능산지하차도,127.100349,37.601082
488,[],7009,우림시장.망우사거리,127.099054,37.599629
489,[4813],7007,망우역.망우지구대,127.095566,37.598821
490,[1448 1458 1459 1478],7001,망우역.상봉터미널,127.091139,37.597828
491,[1449 1455 1474 4804],7003,상봉역.중랑우체국,127.083744,37.595959
492,[1403 1461 1462 1473],7005,중랑역.동부시장,127.076166,37.593983
493,[650],6009,중랑교,127.067704,37.5917
494,[ 670 4125],6011,삼육서울병원,127.060692,37.589652
495,[],6013,시조사삼거리,127.056888,37.588707
496,[635],6014,떡전교사거리.동대문노인복지관,127.052109,37.586498
497,[],6021,청량리미주아파트.동대문세무서,127.048395,37.58278
498,[633 677],6015,청량리역환승센타,127.045431,37.580403
499,[],6022,청량리.청과물도매시장,127.040712,37.578782
500,[659],6024,제기동역.서울약령시,127.035334,37.578196
501,[],6026,용두동사거리.한국의류시험연구원,127.028388,37.577146
502,[363 613 671],6028,신설동역,127.023843,37.575827
503,[456],1044,동묘앞,127.019672,37.574243
504,[3415],1037,동대문(흥인지문),127.012046,37.571953
505,[452 455 457],1022,종로6가.동대문종합시장,127.005714,37.571127
506,[338 339 453],1020,종로5가.광장시장,126.999335,37.570881
507,[ 338  397 3411 3412],1018,종로4가.종묘,126.995284,37.570627
508,[ 328  334  335 3432],1016,종로3가.탑골공원,126.989988,37.570361
509,[ 328  454 3432],1014,종로2가,126.986247,37.570257
510,[ 316  368  385 3408],1012,종로1가,126.981391,37.570229
511,[306 309 310 458],1010,광화문,126.978085,37.570217
512,[ 300  307 4715],1008,서울역사박물관.경희궁앞,126.970609,37.569412
513,[171 173 394],1006,서대문역사거리,126.966893,37.566137
514,[180],13046,충정로역,126.962699,37.560023
515,[ 142 3104],13044,아현역,126.956593,37.557425
516,[3100],13042,웨딩타운,126.952408,37.557227
517,[ 159  436 3133],13025,이대역,126.947271,37.556876
518,[ 129 3116],13023,신촌오거리.2호선신촌역,126.938982,37.555788
519,[128 130],13021,신촌오거리.현대백화점,126.934504,37.555983
520,[493],13019,동교동삼거리,126.92952,37.557765
521,[ 113  114 3010],14016,홍대입구역,126.924589,37.557477
522,[3009],14014,서교동,126.920236,37.554249
523,[104 105 106],14012,합정역,126.913997,37.549682
524,[247 272],19176,당산역,126.90241,37.534863
525,[],19216,양평한신아파트.선유도공원입구,126.894879,37.541864
526,[],19215,영등포아리수정수센터,126.884113,37.547524
527,[ 773 1169],16001,염창역.서울도시가스,126.875881,37.547097
528,[ 774 1170],16003,등촌역.강서보건소,126.868652,37.549005
529,[5075],16005,등촌중학교.백석초등학교,126.861554,37.552628
530,[1175],16007,강서구청사거리.서울디지털대학교,126.855782,37.554756
531,[1174 1182 3798],16009,KBS스포츠월드,126.850463,37.556601
532,[1117],16011,한국가스기술공사,126.845494,37.557853
533,[1124 1153],16013,발산역,126.839158,37.558491
534,[1197 2730 3759 5066],16021,마곡동로사거리,126.834585,37.559035
535,[1152 1190 1191 5055 5056 5057],16018,마곡역,126.827513,37.559695
536,[1151 3758 5052],16024,강서세무서,126.822702,37.560201
537,[1168 3753 3762 3774],16020,"공항중학교.마곡엠밸리9,10단지",126.817152,37.560738
538,[1150 3778 5072],16117,송정역,126.809017,37.561679
539,[1108 1109 1150 3778 5072],16118,공항시장,126.808927,37.562252
540,[1108 1109],16120,공항시장역3번출구,126.810949,37.563825
541,[],16436,방화2동청성아파트,126.811893,37.566564
542,[],16433,방화2동우촌연립,126.811713,37.570135
543,[1102],16126,국민은행방화동지점,126.81159,37.572719
544,[1102],16286,방화사거리,126.809892,37.573287
545,[1178],16288,개화산역,126.805293,37.572771
546,[],16167,개화119안전센터,126.8026,37.575195
547,[1200],16434,개화역광역환승센터,126.797811,37.57845
548,[1021],25101,강동공영차고지,127.173777,37.564239
549,[1054 1079],25103,고덕리엔파크1단지,127.170471,37.56116
550,[1016 1054],25105,해뜨는주유소,127.170899,37.559009
551,[],25131,상일동역4번출구.센트럴푸르지오,127.169252,37.557223
552,[1090],25133,상일동역1번출구,127.164448,37.556588
553,[1071],25135,고덕그라시움,127.160832,37.556058
554,[1052 1070 1071],25137,고덕평생학습관.온조대왕체육관,127.158142,37.555688
555,[1035 1052 1068 1070 1072],25139,고덕역,127.155849,37.555373
556,[],25141,배재중고등학교,127.149451,37.554789
557,[1085],25143,동부기술교육원.장애인종합복지관,127.146585,37.554792
558,[1014],25233,명일역2번출구,127.143971,37.55215
559,[1086 1014],25234,명일역1번출구.명일전통시장,127.14367,37.550025
560,[],25236,굽은다리사거리,127.143328,37.54791
561,[1044 3683],25348,굽은다리역구민회관.강동홈플러스,127.142715,37.545358
562,[3683],25238,십자성마을,127.141971,37.543458
563,[1073 1076 3682],25312,천동초교입구사거리,127.140662,37.53994
564,[3681],25240,길동역1번출구,127.13994,37.537972
565,[1010 1047 3681],25242,예닮요양병원,127.138935,37.535525
566,[1010 1022],25123,길동사거리.강동세무서,127.137523,37.534446
567,[1077 3680],25125,강동역1번출구.동신중학교,127.132159,37.536151
568,[1080],25127,천호역5번출구.천호사거리,127.12714,37.537755
569,[576],5011,광나루역,127.103282,37.545508
570,[3537 3880],5009,새밭교회,127.093499,37.548918
571,[549 574],5006,어린이대공원후문아차산역,127.090149,37.551208
572,[3578],5005,중곡동입구삼거리,127.086551,37.554497
573,[],5003,군자역.용마초등학교,127.082473,37.556099
574,[ 539 3586],5001,군자교입구,127.075646,37.558741
575,[],6003,장한평역,127.067287,37.561151
576,[],6002,청년회의소,127.061284,37.561965
577,[],6001,답십리역사거리,127.05506,37.565187
578,[669],6005,신답초등학교.청계한신휴플러스,127.044728,37.571756
579,[630 641],6006,동대문구청,127.038326,37.574058
580,[612],6007,서울시동부병원,127.030954,37.573929
581,[605],6008,신설동역.서울풍물시장,127.025718,37.574428
582,[456],1044,동묘앞,127.019672,37.574243
583,[3415],1037,동대문(흥인지문),127.012046,37.571953
584,[344 455 457],1288,종로중부새마을금고,127.006591,37.572417
585,[ 474 4765],2173,동대문역사문화공원,127.008356,37.567354
586,[],2172,을지로6가.국립중앙의료원,127.005843,37.566463
587,[473],2165,을지로5가,126.999259,37.566818
588,[389 473],2162,을지로4가,126.996218,37.566647
589,[ 398 4761 4784],2160,을지로3가,126.990376,37.566356
590,[ 331  332 3013 4775 4778 4785],2158,을지로2가.기업은행본점.서울노동청,126.986523,37.566246
591,[4774],2140,롯데백화점,126.982065,37.564492
592,[324 467],2141,해운센터.롯데영프라자,126.981548,37.562891
593,[],2127,북창동.남대문시장,126.97792,37.561175
594,[445 485 444],2008,숭례문,126.973778,37.558639
595,[ 379  442 4760],2005,서울역버스환승센터,126.972762,37.555388
596,[485 444],2122,숭례문,126.974044,37.55842
597,[324 470],2219,남대문시장앞.이회영활동터,126.97858,37.560939
598,[467],2142,롯데영프라자,126.982008,37.562885
599,[ 320  321  331 4775 4778],2156,을지로입구.로얄호텔,126.98539,37.565876
600,[ 331  332 4778 4785],2159,을지로2가.파인에비뉴,126.988828,37.566009
601,[ 398  428 4761 4784],2161,을지로3가,126.991328,37.566121
602,[389 473],2163,을지로4가.베스트웨스턴국도,126.996847,37.566401
603,[],2166,을지로5가.중부시장,127.001115,37.56662
604,[ 347  474 4793],2169,을지로6가.국립중앙의료원,127.006378,37.566075
605,[ 346  474 4765],2174,동대문역사문화공원,127.009023,37.567604
606,[3401],1023,동대문역.흥인지문,127.013451,37.572302
607,[456],1262,숭인동,127.020437,37.574272
608,[363 605 613],6163,동대문우체국.서울풍물시장,127.024565,37.57476
609,[612],6162,용두동신동아아파트,127.031792,37.57377
610,[641],6161,용두역,127.037268,37.573977
611,[630 641],6017,동대문구청,127.039989,37.573459
612,[669],6004,신답초등학교.청계한신휴플러스,127.044292,37.571753
613,[],4001,답십리역사거리,127.054396,37.56545
614,[],4002,청년회의소.서울새활용플라자,127.060488,37.561991
615,[646],4003,장한평역,127.066101,37.561145
616,[539 562],5002,군자교입구,127.0749,37.558794
617,[],5004,군자역.용마초등학교,127.081566,37.556223
618,[3578],5008,중곡동입구삼거리,127.084866,37.554827
619,[549 574],5007,어린이대공원후문아차산역,127.089245,37.552423
620,[3537 3880],5010,새밭교회,127.092614,37.548958
621,[576],5012,광나루역,127.103268,37.545177
622,[1029 1080],25128,천호역6번출구.천호사거리,127.127192,37.537241
623,[1077 3680],25012,강동역,127.131808,37.535954
624,[1011],25010,길동사거리.강동세무서,127.135989,37.534643
625,[1010 1022 3681],25243,예닮요양병원,127.139254,37.535126
626,[3681],25241,길동역3번출구,127.140008,37.537314
627,[1073 1076 3682],25311,천동초교입구사거리,127.141012,37.539955
628,[3682 3683],25239,십자성마을,127.142122,37.542979
629,[1044],25349,굽은다리역구민회관.강동홈플러스,127.143063,37.545612
630,[],25237,굽은다리사거리,127.143559,37.547266
631,[1086 1014],25235,명일역4번출구.명일전통시장,127.144066,37.550314
632,[1086 1014],25232,명일역3번출구.래미안솔베뉴,127.144224,37.551887
633,[1085],25144,동부기술교육원.장애인종합복지관,127.146394,37.554566
634,[],25142,배재중고등학교,127.149464,37.554522
635,[1035 1068 1072],25140,고덕역,127.155082,37.555
636,[1052 1070],25138,고덕평생학습관.온조대왕체육관,127.157508,37.555352
637,[1071],25136,고덕그라시움,127.160272,37.555728
638,[1090],25134,상일동역8번출구,127.164701,37.556357
639,[1090],25132,상일동역6번출구.고덕아르테온,127.168118,37.556817
640,[1016 1054],25106,해뜨는주유소,127.170989,37.559757
641,[1054 1079],25104,고덕리엔파크1단지,127.170696,37.561365
642,[1021],25102,강동공영차고지,127.174038,37.563968
643,[2605 2607],24503,복정역환승센터3번승강장,127.12759,37.46993
644,[],24440,위례31단지.위례포레샤인후문,127.133381,37.474455
645,[1290 2634 4456],24654,송파꿈에그린서문.위례포레샤인,127.137531,37.476202
646,[1263 2650],24441,위례송파더센트레.송파푸르지오,127.138834,37.479479
647,[4875],24425,호반써밋송파2차,127.140824,37.483585
648,[4895 4896],24421,세계로병원,127.142165,37.486735
649,[1229 4469],24275,거여아파트단지앞,127.143575,37.490464
650,[1204 1227],24270,거여역,127.142666,37.494054
651,[2616 2617 4881],24252,보인고교.오금동삼성아파트,127.138346,37.496343
652,[4872 4873],24251,오금동상아아파트,127.135938,37.497654
653,[4872 4873],24250,오금공원앞,127.133101,37.499157
654,[1214],24249,오금동현대아파트,127.126433,37.503294
655,[1260 4461],24224,한양삼익아파트,127.121625,37.505951
656,[2630],24391,서울방이동고분군,127.116198,37.50821
657,[2620],24220,방이우체국,127.113925,37.509513
658,[2620],24214,송파나루역,127.111674,37.510679
659,[1211 2608],24215,송파구청.방이맛골,127.107827,37.513184
660,[1210 1295],24132,잠실역8번출구,127.10146,37.513912
661,[1231 1295 4452],24133,잠실역,127.099443,37.514607
662,[546],5194,자양동잠실대교북단,127.085851,37.53212
663,[3873],5192,동서울우편집중국앞,127.084408,37.535282
664,[ 505 3575],5176,자양사거리,127.082604,37.536889
665,[3504],5178,자양초등학교앞,127.078659,37.537844
666,[ 590 3504],5180,건국대학교앞,127.075068,37.538747
667,[3534],5230,건대입구역1번출구,127.068167,37.540896
668,[514],4257,성수사거리,127.062548,37.542781
669,[587],4240,성수역1번출구,127.053632,37.545431
670,[ 513 3548 4353],4239,뚝섬역4번출구,127.049365,37.546716
671,[ 512 3548],4237,뚝섬역2번출구,127.046846,37.547575
672,[ 512 3538 4370],4185,성동교남단,127.044485,37.549832
673,[3545],4130,한양대정문앞,127.04332,37.556773
674,[3561],4137,서울숲삼부아파트,127.037949,37.558723
675,[521 559],4134,왕십리역,127.036267,37.560337
676,[],4110,코스모타워.서울신용보증재단성동지점,127.032903,37.562982
677,[ 520 3513 3547],4113,상왕십리역,127.030245,37.564872
678,[ 519  530 4122],4106,청계벽산아파트.텐즈힐아파트,127.030417,37.568725
679,[612],6185,동아제약앞,127.030731,37.572716
680,[605],6008,신설동역.서울풍물시장,127.025718,37.574428
681,[],6102,신설동역,127.025947,37.576245
682,[614],6104,용두로타리한국의류시험연구원,127.029482,37.577256
683,[],6182,서울시동부병원,127.03043,37.575896
684,[612],6184,동아제약앞,127.030442,37.572599
685,[4122],6310,e편한세상청계센트럴포레아파트,127.030252,37.570682
686,[ 519  530 3555],4107,청계벽산아파트.텐즈힐아파트,127.030041,37.568168
687,[ 519  520 3513 3547 3555],4114,상왕십리역.센트라스아파트,127.02997,37.565576
688,[521],4109,왕십리2동주민센터,127.033263,37.56245
689,[559],4133,왕십리역,127.036192,37.559947
690,[ 525 3557 3561],4136,행당1동주민센터.성동소방서,127.038627,37.558152
691,[3545],4129,한양대정문,127.043129,37.556388
692,[3538 4370],4186,성동교남단,127.043963,37.550508
693,[ 512 3548],4236,뚝섬역8번출구,127.046113,37.547438
694,[ 513 3548 4353],4238,뚝섬역5번출구,127.049012,37.546472
695,[567 589],4253,성수역4번출구,127.055005,37.54462
696,[514],4256,성수사거리,127.062395,37.542379
697,[3534],5217,건대입구역6번출구,127.067279,37.540827
698,[3504],5205,건국대학교앞,127.074875,37.538446
699,[],5179,자양초등학교앞,127.078796,37.537479
700,[ 505 3575],5177,자양사거리,127.082104,37.53675
701,[ 546 3873],5188,자양동잠실대교북단,127.084806,37.532955
702,[],24134,잠실역1번.11번출구,127.103025,37.514152
703,[1278 2608],24136,송파구청.방이맛골,127.107161,37.514315
704,[2620],24197,방이동사거리,127.110786,37.510668
705,[2620],24199,송파나루역,127.112726,37.509856
706,[2630],24202,서울방이동고분군,127.115171,37.508425
707,[1260 4461],24206,삼익아파트미성아파트,127.120383,37.506087
708,[1214 1253],24369,송파경찰서.오금역,127.126763,37.50268
709,[],24459,가락래미안앞,127.132413,37.499257
710,[4872 4873],24348,개롱역3번출구,127.135256,37.497643
711,[2617],24349,삼환아파트,127.137465,37.496575
712,[1227],24271,거여역현대아파트,127.14235,37.493849
713,[1204 1227 1229 4469],24403,거여역7번출구,127.144006,37.492336
714,[1229 4469],24272,체육문화회관,127.143376,37.490804
715,[4895 4896],24422,세계로병원,127.141832,37.487456
716,[4875],24424,호반써밋송파1차,127.140508,37.484342
717,[1263],24443,위례송파푸르지오.송파더센트레,127.138856,37.480743
718,[2634 2650],24653,위례포레샤인.송파꿈에그린서문,127.137112,37.477028
719,[],24439,위례포레샤인.위례31단지후문,127.13343,37.474753
720,[2605 2607],24658,복정역환승주차장,127.128144,37.470728
721,[1021],25101,강동공영차고지,127.173777,37.564239
722,[1054 1079],25103,고덕리엔파크1단지,127.170471,37.56116
723,[1016 1054],25105,해뜨는주유소,127.170899,37.559009
724,[],25131,상일동역4번출구.센트럴푸르지오,127.169252,37.557223
725,[1090],25133,상일동역1번출구,127.164448,37.556588
726,[1071],25135,고덕그라시움,127.160832,37.556058
727,[1052 1070 1071],25137,고덕평생학습관.온조대왕체육관,127.158142,37.555688
728,[1035 1052 1068 1070 1072],25139,고덕역,127.155849,37.555373
729,[],25141,배재중고등학교,127.149451,37.554789
730,[1085],25143,동부기술교육원.장애인종합복지관,127.146585,37.554792
731,[1006 3659],25145,명일초등학교,127.143437,37.554867
732,[1051 3658],25147,암사3동주민센터(강동롯데캐슬퍼스트),127.139278,37.554801
733,[1051 3658],25149,강일중.선사고,127.137146,37.554807
734,[1031],25151,신암중학교,127.131364,37.554839
735,[1004],25153,삼성광나루아파트.암사동유적,127.128575,37.553395
736,[1008],25155,암사역선사현대아파트,127.127633,37.550841
737,[1002],25157,천호동공원,127.125912,37.545969
738,[1001 1003],25159,서울현대요양병원,127.124817,37.542919
739,[1001 1009 3657],25161,천호역현대백화점.노동권익센터,127.123821,37.540243
740,[1012 1264],24101,천호역.풍납시장,127.122691,37.537164
741,[1013 1208 1274],24109,영파여고.강동구청역,127.120606,37.531307
742,[1088 1208],24468,현대아파트앞,127.119361,37.528759
743,[2638 4892],24110,풍납동극동.쌍용아파트,127.118024,37.526563
744,[4856],24123,잠실파크리오아파트상가.올림픽회관,127.114649,37.521024
745,[1226 1268 4870],24127,몽촌토성역,127.113034,37.518395
746,[],24128,신천동진주아파트,127.109486,37.516615
747,[1210 1295],24132,잠실역8번출구,127.10146,37.513912
748,[1231 1232],24138,잠실역.롯데월드,127.097946,37.512899
749,[1233],24139,잠실5단지,127.093914,37.512213
750,[1222 2635],24141,잠실새내역.잠실2동주민센터,127.087281,37.511772
751,[1222],24142,잠실엘스아파트앞,127.08339,37.511871
752,[1206 1224 2637],24143,종합운동장사거리,127.079692,37.512009
753,[1205],24144,잠실종합운동장,127.072073,37.511118
754,[],23196,강남경찰서면허시험장,127.0658,37.509946
755,[2316 2322 2355],23201,한국무역센터.삼성역,127.061701,37.508667
756,[2319 2348],23217,포스코건너편,127.055427,37.506683
757,[2332],23218,선릉역,127.050205,37.505143
758,[2328 2329 2357],23277,서울상록회관.한국기술센터,127.044057,37.503232
759,[2349],23280,아가방빌딩.하나은행,127.038633,37.501541
760,[2410 2430],23283,역삼역,127.035079,37.500442
761,[2407],23284,강남역12번출구,127.029839,37.498829
762,[],22012,지하철2호선강남역,127.02637,37.500785
763,[2302 2542],22014,논현역,127.023728,37.506367
764,[2504],23110,신사역3번출구,127.020097,37.515199
765,[2362 2406],23108,신사역8번출구.가로수길,127.022175,37.51744
766,[2504],22015,신사역.푸른저축은행,127.019939,37.514489
767,[],22013,논현역,127.023032,37.507226
768,[],22011,지하철2호선강남역,127.025438,37.501817
769,[2407],23287,강남역.역삼세무서,127.029148,37.498136
770,[2410],23288,역삼역.포스코타워역삼,127.03379,37.499572
771,[2349],23305,한서병원,127.038818,37.501137
772,[2328 2329 2357],23306,한국자산신탁.센터필드,127.044247,37.502783
773,[2332],23259,선릉역,127.050462,37.504761
774,[2319 2369],23260,포스코빌딩,127.054803,37.506043
775,[2322 2355],23251,한국무역센터.삼성역,127.061664,37.508107
776,[],23473,강남경찰서.강남운전면허시험장,127.066009,37.509504
777,[1205],24154,잠실종합운동장,127.072816,37.510419
778,[1206 1224 2637],24157,종합운동장사거리,127.079555,37.511613
779,[1222 2635],24158,잠실새내역4번출구,127.084495,37.511407
780,[1269],24145,잠실트리지움아파트앞,127.091202,37.511512
781,[1232],24146,잠실역.롯데월드,127.098196,37.512412
782,[],24134,잠실역1번.11번출구,127.103025,37.514152
783,[],24216,잠실진주아파트,127.109619,37.516175
784,[4856],24231,올림픽회관,127.11515,37.520913
785,[1088 2638 4892],24232,풍납동극동.쌍용아파트,127.118607,37.526705
786,[1088 1208],25313,강동구청역농협중앙회,127.120036,37.529011
787,[1013 1028 1274],25164,강동구청역1번출구.영파여고,127.121298,37.531901
788,[1012],25163,천호역,127.122769,37.535973
789,[1009 1264 3657],25162,천호역현대백화점.노동권익센터,127.124006,37.539953
790,[1001 3657],25160,서울현대요양병원,127.124856,37.542061
791,[1002],25158,천호동공원,127.126175,37.545873
792,[1008],25156,암사역2번출구.암사종합시장,127.127528,37.549601
793,[1004],25154,삼성광나루아파트.암사동유적,127.128922,37.55334
794,[1031],25152,신암중학교,127.131321,37.554614
795,[1051],25150,강일중.선사고,127.13595,37.554585
796,[1051 3658],25148,암사3동주민센터프라이어팰리스,127.139319,37.554559
797,[1006 3659],25146,명일초등학교,127.143468,37.554602
798,[1085],25144,동부기술교육원.장애인종합복지관,127.146394,37.554566
799,[],25142,배재중고등학교,127.149464,37.554522
800,[1035 1068 1072],25140,고덕역,127.155082,37.555
801,[1052 1070],25138,고덕평생학습관.온조대왕체육관,127.157508,37.555352
802,[1071],25136,고덕그라시움,127.160272,37.555728
803,[1090],25134,상일동역8번출구,127.164701,37.556357
804,[1090],25132,상일동역6번출구.고덕아르테온,127.168118,37.556817
805,[1016 1054],25106,해뜨는주유소,127.170989,37.559757
806,[1054 1079],25104,고덕리엔파크1단지,127.170696,37.561365
807,[1021],25102,강동공영차고지,127.174038,37.563968
808,[2605 2607],24503,복정역환승센터3번승강장,127.12759,37.46993
809,[1245 1246 4491],24015,장지역.가든파이브,127.126124,37.479043
810,[4465],24013,문정법조단지.건영아파트,127.124748,37.482125
811,[2615],24011,문정로데오거리입구,127.121363,37.488365
812,[1257 4480],24386,가락시장.가락몰,127.115874,37.491843
813,[1250 4880],24387,가락시장남문,127.112403,37.4908
814,[2375 2376 2377],23404,수서역KT수서지점,127.100736,37.487189
815,[],23406,궁마을,127.097246,37.48535
816,[2422],23465,태화기독교.사회복지관,127.093353,37.484528
817,[2351],23380,수서삼성아파트앞,127.090989,37.484399
818,[2341],23381,일원본동주민센터,127.08475,37.483489
819,[3644],23382,푸른마을아파트앞,127.080583,37.482913
820,[2403],23362,연금매점,127.074603,37.488474
821,[2337 2404],23395,대치아파트,127.072487,37.492414
822,[],23237,은마아파트,127.066974,37.495767
823,[2431],23226,대치역1번출구,127.061498,37.493859
824,[2320],23227,래미안.대치.팰리스,127.05858,37.49256
825,[2320 2413],23219,도곡역2번출구.동부센트레빌,127.056523,37.491586
826,[2414],23329,숙명여고,127.052466,37.489736
827,[],23316,매봉삼성아파트SK리더스뷰,127.048961,37.488145
828,[],23317,매봉역양재최의원,127.044562,37.486164
829,[2293 3609],23318,양재역말죽거리.강남베드로병원,127.037969,37.485251
830,[2333 4329],22006,뱅뱅사거리,127.033097,37.486653
831,[2327 2409],22008,래미안아파트.파이낸셜뉴스,127.030987,37.491087
832,[2505],22010,신분당선강남역,127.029112,37.494993
833,[],22012,지하철2호선강남역,127.02637,37.500785
834,[2302 2542],22014,논현역,127.023728,37.506367
835,[2303],22016,신사역,127.020607,37.512972
836,[],3166,한남5거리,127.008338,37.532866
837,[ 864 4610],3162,순천향대학병원,127.00573,37.536442
838,[ 322  332 4778],2002,서울백병원.국가인권위.안중근활동터,126.987852,37.56435
839,[ 328  329  454 3432],1001,종로2가사거리,126.98775,37.569765
840,[ 328  454 3432],1014,종로2가,126.986247,37.570257
841,[ 316  368  385 3408],1012,종로1가,126.981391,37.570229
842,[306 309 310 458],1010,광화문,126.978085,37.570217
843,[ 307 4715],1123,서울역사박물관.경교장.강북삼성병원,126.971248,37.570023
844,[300 394],1169,서대문역사거리.적십자병원,126.967588,37.567108
845,[395],13037,영천시장,126.963006,37.56961
846,[3426 3427],13035,독립문역.한성과학고,126.95642,37.575705
847,[ 161 3111],13032,무악재역,126.950655,37.581865
848,[],13040,인왕산.홍제원아파트,126.948862,37.584397
849,[3103],13029,홍제역.서대문세무서,126.945323,37.587843
850,[],13027,산골고개,126.940668,37.594692
851,[ 917  978 4658],12027,녹번역,126.935322,37.601862
852,[],12025,한전성서지사.북한산푸르지오,126.9344,37.605374
853,[919 925 967],12023,불광역3호선.서울혁신파크,126.93175,37.608438
854,[ 961 4653 4663],12021,불광역3.6호선,126.928755,37.611884
855,[964],12019,동명여고.천주교불광동성당,126.925213,37.615482
856,[922 927 949],12017,연신내역.연서시장,126.92184,37.61836
857,[947],12015,세명컴퓨터고등학교,126.919973,37.624215
858,[921 993],12013,박석고개.신도고등학교,126.919374,37.629919
859,[905 960],12111,구파발역2번출구,126.918989,37.636768
860,[959],12009,은평뉴타운10단지,126.915165,37.642948
861,[],12470,진관공영차고지,126.908187,37.646608
862,[],12469,진관공영차고지,126.907926,37.646746
863,[],35160,동산동능모퉁이.한국지역난방공 ,126.905667,37.646859
864,[959],12010,은평뉴타운10단지,126.91373,37.643407
865,[905],12112,구파발역.롯데몰,126.918634,37.636408
866,[921 993],12014,박석고개.신도고등학교,126.919189,37.630865
867,[],12016,세명컴퓨터고등학교,126.919996,37.625283
868,[ 922  949 4671],12018,연신내역.연서시장,126.920934,37.619323
869,[964],12020,동명여고.천주교불광동성당,126.923925,37.616218
870,[4663],12022,불광역3.6호선,126.928155,37.612447
871,[925 967],12024,불광역3호선.서울혁신파크,126.930907,37.609247
872,[],12026,한전성서지사.북한산푸르지오,126.933686,37.60618
873,[ 917  978 4658],12028,녹번역,126.935049,37.602435
874,[],13026,산골고개,126.939996,37.595302
875,[],13028,홍제역.서대문세무서,126.944365,37.588491
876,[3103],13030,홍제삼거리.인왕산한신휴플러스,126.947843,37.585207
877,[ 161 3111],13031,무악재역,126.94981,37.583154
878,[161],13033,안산초등학교,126.951572,37.580686
879,[ 367 3112 3426],13034,독립문역.한성과학고,126.957577,37.574689
880,[],13036,영천시장,126.962533,37.569939
881,[394 395],13134,금화초등학교.서울시교육청,126.964326,37.567901
882,[300 394],2281,서대문역사거리.농협중앙회,126.967886,37.566922
883,[ 300  307 4715],1007,서울역사박물관.경희궁앞,126.97038,37.569135
884,[303 306 308 309],1009,광화문,126.975251,37.570135
885,[316 368 385],1011,종로1가,126.980911,37.570118
886,[ 454 3408],1013,종로2가,126.985543,37.570139
887,[ 329  472 3013 3432 4785],1004,종로2가.삼일교,126.987613,37.568579
888,[ 322  331  332 4778],2001,남대문세무서.서울백병원,126.98753,37.564985
889,[ 864 4610],3165,순천향대학병원.한남오거리,127.005729,37.535491
890,[2504],22015,신사역.푸른저축은행,127.019939,37.514489
891,[],22013,논현역,127.023032,37.507226
892,[],22011,지하철2호선강남역,127.025438,37.501817
893,[],22009,신분당선강남역,127.028401,37.496042
894,[2327 2409 2505],22007,래미안아파트.파이낸셜뉴스,127.030405,37.491895
895,[],22005,뱅뱅사거리,127.032432,37.487667
896,[2293 3609],22270,양재역.양재1동민원분소,127.037419,37.484769
897,[2335],23323,매봉역,127.044978,37.485919
898,[],23324,도곡개포한신아파트,127.04938,37.487972
899,[2414],23327,군인공제회관,127.052111,37.489168
900,[2320 2413],23228,도곡역3번출구,127.056547,37.491182
901,[],23229,대치동우성아파트,127.059611,37.492577
902,[2372 2431],23230,대치역8번출구,127.06206,37.493678
903,[2321],23238,대치동미도아파트,127.067708,37.495605
904,[2337 2404],23360,개원중학교,127.072156,37.492262
905,[2403 3624],23361,개포주공7단지앞,127.073727,37.488953
906,[3644],23449,일원동한솔아파트,127.079579,37.482472
907,[3644],23383,상록수아파트앞,127.082122,37.482805
908,[2341],23384,일원본동주민센터,127.085975,37.483383
909,[2351],23450,시립수서청소년수련관,127.089107,37.483863
910,[2422],23385,수서119.안전센터앞,127.093769,37.484321
911,[],23407,궁마을,127.097607,37.485281
912,[2375 2377],23410,수서역.로즈데일빌딩,127.102868,37.487398
913,[1250 4880],24333,문정2동주민센터.청소년수련관,127.112541,37.490477
914,[],24334,훼미리근린공원,127.11491,37.491185
915,[2615],24012,문정로데오거리입구,127.120775,37.48901
916,[4465],24014,문정법조단지.건영아파트,127.123873,37.48309
917,[1245 4491],24016,장지역.가든파이브,127.125472,37.479907
918,[2605 2607],24658,복정역환승주차장,127.128144,37.470728
919,[],18219,범일운수종점,126.911791,37.450491
920,[],18140,시흥동은행나무.은행나무시장,126.909045,37.451031
921,[],18142,은행나무입구사거리,126.907208,37.451784
922,[],18233,금빛공원앞,126.904456,37.45328
923,[3959],18863,시흥사거리.대명시장,126.90182,37.454764
924,[1823 1863 1869],18007,금천구청.금천경찰서,126.898872,37.459209
925,[],18005,말미고개.금천소방서,126.897763,37.464175
926,[1829 3963],18003,금천우체국,126.898083,37.469136
927,[1828],18001,문성초등학교,126.898666,37.475364
928,[1911 1955 2110 2113],21001,구로디지털단지역,126.902447,37.483935
929,[ 282 4167],20001,동작상떼빌아파트,126.904448,37.486449
930,[2012 2066],19260,대림동우체국,126.905453,37.489438
931,[],19261,흰돌교회,126.903219,37.490942
932,[ 286 4555 4599],19271,대동초등학교.명지성모병원,126.898696,37.494172
933,[1975],19270,대림역,126.896468,37.492762
934,[1985 3914],17107,거리공원,126.891526,37.499907
935,[1960 3905 3914],17105,한국SGI,126.889543,37.502354
936,[1906 2824],17002,신도림역,126.888464,37.509108
937,[],19001,문래동남성아파트,126.893705,37.511828
938,[],19003,남부지방법원등기국.구로세무서(에이스하이테크시티),126.901187,37.514484
939,[274],19112,경방타임스퀘어.신세계백화점,126.90624,37.517508
940,[ 277  283 4574],19104,영등포시장,126.905199,37.521855
941,[ 287  296 4574],19122,신화병원,126.90554,37.524895
942,[ 244  293 3202 3215],19126,당산푸르지오아파트,126.905958,37.529032
943,[247],19175,당산역삼성래미안아파트,126.903582,37.53319
944,[247 268],19172,당산역,126.900719,37.534589
945,[106],14011,합정역,126.912832,37.548874
946,[108],14013,서교동,126.919582,37.553637
947,[113 114],14015,홍대입구역,126.923196,37.556373
948,[115 493],14061,동교동삼거리,126.928459,37.55806
949,[ 128  129  130 3116],14062,신촌오거리.현대백화점,126.935893,37.555397
950,[136],14063,신촌오거리.2호선신촌역,126.940144,37.556066
951,[137 159 436],14064,이대역,126.944594,37.556613
952,[3100],14067,웨딩타운,126.951517,37.557092
953,[ 142 3104],14068,아현역,126.954747,37.557298
954,[ 180 3114 4752],2107,종근당.충정로역,126.964481,37.559513
955,[370],2133,서소문,126.974887,37.563207
956,[ 309  310  458 4768  311],2137,서울신문사,126.977365,37.568363
957,[305 306 304],1118,KT광화문지사,126.977332,37.572226
958,[369],1117,경복궁,126.978747,37.575577
959,[ 326 3407],1200,안국역.종로경찰서.인사동,126.984243,37.575785
960,[4705],1199,창덕궁.우리소리박물관,126.988635,37.577273
961,[359],1256,원남동사거리,126.998215,37.575723
962,[ 355  356 3423],1218,현대그룹빌딩,127.000533,37.575873
963,[343 355 356],1225,이화동(이화장),127.003271,37.575937
964,[343 344],1215,충신동,127.006279,37.574022
965,[3401],1023,동대문역.흥인지문,127.013451,37.572302
966,[456],1041,동묘앞,127.018451,37.573726
967,[363 613 671],6107,신설동역1번출구,127.023317,37.57663
968,[1351],6178,대광고등학교앞,127.025562,37.579778
969,[1308],6177,안암오거리,127.030004,37.582402
970,[ 673  674 1372 4414],6176,우신향병원,127.032293,37.585548
971,[],6175,고려대학교앞,127.034774,37.588147
972,[1321],8155,숭례초등학교,127.03617,37.594397
973,[1320],8153,종암동주민센터,127.034944,37.598189
974,[],8151,종암사거리입구,127.033788,37.601044
975,[1319],8128,KT월곡지사,127.033876,37.602483
976,[1373],8130,종암SK아파트,127.037493,37.602031
977,[1323 1328 1380],8132,월곡역,127.041569,37.601611
978,[1328],8134,동덕여대앞,127.042834,37.603003
979,[1325 1326],8135,한국과학기술연구원입구,127.047416,37.60551
980,[1327],8137,월곡중학교,127.049787,37.606895
981,[],8139,새석관시장,127.053247,37.608633
982,[4408],8210,돌곶이역,127.05636,37.611729
983,[],8206,장위동원천주유소,127.052974,37.614631
984,[4406],8204,하나은행장위동지점,127.050048,37.61643
985,[4406],8202,장곡초교앞,127.047942,37.617707
986,[1359 1534],8200,북서울꿈의숲,127.045768,37.619031
987,[1359 1534],8105,북서울꿈의숲,127.045345,37.620317
988,[1349 3711],8106,장월초등학교,127.048711,37.623466
989,[1349],11337,롯데캐슬루나아파트,127.051436,37.625155
990,[4011],11338,인덕대앞,127.057513,37.629038
991,[1605],11340,월계보건지소,127.061687,37.631583
992,[],11453,하계시영아파트,127.065569,37.633984
993,[1616],11455,하계장미아파트,127.066963,37.634928
994,[1616 4007],11425,하계미성아파트.을지병원,127.069433,37.636585
995,[4007],11428,한성여객종점,127.070056,37.63813
996,[],11387,노원평생학습관,127.068935,37.639343
997,[1616 4007 4036],11447,하계역,127.067663,37.636667
998,[1616],11454,하계우성아파트,127.066808,37.635251
999,[],11452,하계극동아파트,127.064722,37.633899
1000,[1605],11339,월계보건지소,127.061724,37.632048
1001,[1671 1675 4011],11311,인덕대학,127.055274,37.627984
1002,[],11310,월계주공108동앞롯데캐슬루나아파트,127.052593,37.626189
1003,[3711],9186,오현초등학교,127.047984,37.623413
1004,[1359 1534],8199,북서울꿈의숲,127.044942,37.61931
1005,[4406],8201,장곡초교앞,127.047582,37.617699
1006,[4406],8203,하나은행장위동지점,127.050021,37.616211
1007,[],8205,장위동원천주유소,127.052768,37.614473
1008,[],8207,장위2동주민센터,127.055532,37.612092
1009,[4408],8142,돌곶이역,127.056208,37.610586
1010,[],8140,새석관시장,127.052602,37.6087
1011,[1325 1326 1327],8138,월곡중학교,127.049149,37.606892
1012,[1325 1326 1377],8136,상월곡역,127.046447,37.605489
1013,[1328],8133,월곡역,127.042212,37.602911
1014,[1373],8131,성북구보건소,127.039292,37.602553
1015,[1319],8129,KT월곡지사,127.035189,37.602947
1016,[1319],8150,종암사거리입구,127.033044,37.601433
1017,[1320],8152,종암동주민센터,127.034108,37.599415
1018,[1321],8154,숭례초교,127.035681,37.594805
1019,[],8156,고대앞,127.034811,37.588564
1020,[ 673 1372 4414],8157,우신향병원,127.03161,37.585136
1021,[1308],8158,안암오거리,127.029005,37.582612
1022,[ 672 1351],8159,대광초교,127.025028,37.579707
1023,[363 613 671],1243,신설동로터리,127.02278,37.575929
1024,[456],1044,동묘앞,127.019672,37.574243
1025,[3415],1037,동대문(흥인지문),127.012046,37.571953
1026,[343 344],1217,충신동,127.006343,37.57446
1027,[355 356],1277,이화동(이화장),127.002955,37.576257
1028,[ 355  356 3423],1223,이화동(이화장),127.000695,37.576119
1029,[ 354 4705],1172,창덕궁.서울돈화문국악당,126.988539,37.577541
1030,[ 326 3407],1131,안국역.종로경찰서.서울공예박물관,126.983996,37.57607
1031,[3407],1130,덕성여중고,126.982017,37.575902
1032,[ 305 3406  304],1126,세종문화회관,126.976857,37.57359
1033,[306 309 310 458],1129,광화문광화문빌딩,126.976689,37.569688
1034,[4768  312  311],2286,시청앞.덕수궁,126.976836,37.566212
1035,[370 312],2134,서소문,126.97534,37.563675
1036,[ 180 3114 4752],13137,충정로역2호선,126.964027,37.559611
1037,[ 142 3104],13044,아현역,126.956593,37.557425
1038,[3100],13042,웨딩타운,126.952408,37.557227
1039,[ 159  436 3133],13025,이대역,126.947271,37.556876
1040,[ 129 3116],13023,신촌오거리.2호선신촌역,126.938982,37.555788
1041,[128 130],13021,신촌오거리.현대백화점,126.934504,37.555983
1042,[493],13019,동교동삼거리,126.92952,37.557765
1043,[ 113  114 3010],14016,홍대입구역,126.924589,37.557477
1044,[3009],14014,서교동,126.920236,37.554249
1045,[104 105 106],14012,합정역,126.913997,37.549682
1046,[267 268],19173,당산역,126.899455,37.534925
1047,[247],19174,당산역삼성래미안아파트,126.903388,37.533022
1048,[ 244  293 3202],19125,삼환아파트,126.905597,37.529082
1049,[ 287  296 4574],19121,신화병원,126.905155,37.524531
1050,[277],19120,영등포시장,126.904785,37.521318
1051,[274],19821,경방타임스퀘어.신세계백화점,126.905932,37.517298
1052,[291],19004,남부지방법원등기국.구로세무서(에이스하이테크시티),126.899746,37.51404
1053,[],19002,문래동남성아파트,126.892312,37.511202
1054,[1906 2824],17001,신도림역,126.889423,37.509752
1055,[1920 1960 3905],17106,거리공원.구로신협본점앞,126.888668,37.502813
1056,[1985 3914],17108,구로도서관.대성스카이렉스,126.891218,37.499675
1057,[1914 1975],17296,대림역,126.894374,37.493501
1058,[1975],19264,대림역12번출구,126.896623,37.492522
1059,[ 286 4555 4599],19265,대동초등학교.명지성모병원,126.899177,37.494139
1060,[ 286 4555 4599],19266,대동초등학교,126.900661,37.493661
1061,[],19267,흰돌교회,126.903257,37.490543
1062,[2012],19268,대림동우체국,126.90473,37.489628
1063,[ 282 4167],19009,서울영림초등학교,126.904695,37.48703
1064,[1955 2110],17013,구로디지털단지역,126.901548,37.483099
1065,[1828 1831],18002,문성초등학교,126.89833,37.474034
1066,[1829 3963],18004,금천우체국,126.898003,37.470136
1067,[3977],18006,말미고개.금천소방서,126.897285,37.46473
1068,[1823 1864],18008,금천구청.금천경찰서,126.899097,37.457727
1069,[],18232,금빛공원앞,126.904297,37.453107
1070,[],18143,은행나무입구사거리,126.906735,37.451855
1071,[],18141,시흥동은행나무.은행나무시장,126.909058,37.450843
1072,[],18708,범일운수종점,126.911528,37.450215
1073,[],15718,양천공영차고지,126.837665,37.508486
1074,[743],15320,신정현대아파트,126.841787,37.508578
1075,[710 743],15317,신정현대아파트.서부트럭터미널,126.842984,37.50836
1076,[1933],17236,개봉1동사거리,126.846915,37.50047
1077,[3912],17246,개봉고가,126.855748,37.493683
1078,[1931 1936 3903 3912],17234,개봉역,126.857336,37.493387
1079,[],38079,철산리버빌아파트,126.867537,37.492436
1080,[1907],17238,구일우성아파트,126.876261,37.488715
1081,[1812],18151,디지털단지오거리.가산파출소,126.888718,37.47963
1082,[1924],18118,디지털단지오거리,126.893326,37.478535
1083,[1854 1924],18119,가산초등학교,126.895556,37.478235
1084,[],18197,모두의학교.금천문화예술정보학교,126.905593,37.47995
1085,[2156],18198,관악구보훈회관.신림푸르지오,126.908757,37.480639
1086,[3814],21115,난곡입구,126.915941,37.481906
1087,[],21361,호림박물관,126.918619,37.482367
1088,[3803],21116,남서울중학교.성보중고등학교,126.920842,37.482735
1089,[2102 2135 2136],21117,신림사거리.신림역,126.928063,37.483818
1090,[2164 2195 3807],21262,관악우체국.양지병원,126.933148,37.484452
1091,[2109 2137 2195 3807],21118,KT&G관악지점,126.936125,37.484533
1092,[2108 2169 2189],21119,봉천역.관악초등학교,126.943247,37.482009
1093,[2112 3812],21120,KT관악지점,126.948461,37.481483
1094,[2111],21121,봉천사거리,126.954698,37.480266
1095,[2186 2198 2199 3810],21122,낙성대동,126.957505,37.479184
1096,[2122 2186 3813 3304],21123,낙성대입구,126.960887,37.477844
1097,[2165 2167 3305],21124,인헌중고.서울미술고,126.966516,37.475682
1098,[],21125,예술인마을.사당초등학교,126.973989,37.47593
1099,[3815],21126,남서울농협남현동지점,126.977301,37.476371
1100,[2281],22258,대항병원.연세사랑병원,126.986765,37.475387
1101,[],22259,방배동래미안타워.동덕여중고,126.990656,37.474288
1102,[2225],22260,성뒤마을.교육연수원,126.996918,37.473326
1103,[],22244,경남임광아파트,127.000743,37.477032
1104,[4318],22246,서울지방법무사회,126.998755,37.48004
1105,[2235],22248,신동아아파트앞,127.001892,37.482005
1106,[4304],22149,서울고등학교,127.005579,37.482747
1107,[4304],22147,서초중학교,127.008805,37.483388
1108,[2237 2297],22157,남부터미널,127.015483,37.484672
1109,[2297],22102,서울교대사거리,127.01506,37.487329
1110,[],22101,지하철3호선교대역,127.01419,37.491782
1111,[2239 2279],22103,지하철2호선교대역2,127.015234,37.493901
1112,[2520 2521],22104,서초동유원아파트,127.020216,37.495457
1113,[2231],22114,롯데칠성,127.024004,37.496657
1114,[2407],23287,강남역.역삼세무서,127.029148,37.498136
1115,[2410],23288,역삼역.포스코타워역삼,127.03379,37.499572
1116,[2349],23305,한서병원,127.038818,37.501137
1117,[2328 2329 2357],23306,한국자산신탁.센터필드,127.044247,37.502783
1118,[2332],23259,선릉역,127.050462,37.504761
1119,[2319 2369],23260,포스코빌딩,127.054803,37.506043
1120,[2322 2355],23251,한국무역센터.삼성역,127.061664,37.508107
1121,[2316 2355],23197,삼성역7번출구,127.062719,37.510408
1122,[2315 2418 2419 3605],23192,봉은사역3번출구.삼성1파출소,127.060163,37.515108
1123,[2354],23188,청담역.경기고교,127.057941,37.519187
1124,[2312 2354],23171,우리은행청담지점.청담삼익아파트,127.056846,37.52103
1125,[],23168,영동교입구.청담자이아파트,127.056002,37.522784
1126,[3506],5220,영동대교북단,127.061162,37.536568
1127,[],5216,노룬산시장,127.062691,37.539503
1128,[3534],5217,건대입구역6번출구,127.067279,37.540827
1129,[3534 3569],5232,건대입구역사거리.건대병원,127.071264,37.540981
1130,[ 500 3581 3860],5234,어린이대공원역.화양천주교회,127.073588,37.545904
1131,[3573],5140,어린이대공원앞,127.077031,37.552046
1132,[ 540 3518],5141,능동사거리.군자역,127.078635,37.555177
1133,[],5101,군자교,127.075203,37.561533
1134,[3879],5122,중곡아파트,127.0779,37.566401
1135,[553],5120,면곡시장,127.079729,37.569746
1136,[ 553 1444],7123,늘푸른동아아파트,127.080357,37.572498
1137,[1444 1477],7122,경남아너스빌아파트앞,127.080155,37.57475
1138,[1445 1480],7120,면목신우아파트,127.079812,37.580633
1139,[1437 1480],7466,늘푸른근린공원,127.07985,37.582891
1140,[1440],7118,장안시장,127.080031,37.585341
1141,[1440],7116,면목2동,127.08012,37.587479
1142,[1446],7114,중목초등학교,127.080217,37.589545
1143,[1446 4803],7112,상봉2동복합청사.도서관,127.08033,37.591835
1144,[1429 1442],7110,중화동한신아파트,127.080169,37.599076
1145,[1433 1464 1472],7108,지하철7호선중화역,127.07945,37.602844
1146,[1454 1470],7106,한국전력동부지사,127.078828,37.606037
1147,[1408 1469],7426,먹골역,127.078182,37.609364
1148,[1401 4812],7104,먹골역.묵동자이아파트,127.077101,37.613594
1149,[1401 1471],7102,묵동자이.신도브래뉴아파트,127.076589,37.61527
1150,[1606 1684],11103,태릉입구역4번출구,127.0752,37.619589
1151,[2910],11101,공릉시장,127.074178,37.622741
1152,[1608 4041],11161,공릉역1번출구,127.072786,37.626579
1153,[],11159,서울과학기술대입구,127.071801,37.628474
1154,[1616],11417,하계미성아파트,127.068966,37.634849
1155,[1616 4007 4036],11416,하계역,127.068213,37.636572
1156,[1650 2919],11374,서울시립북서울미술관,127.066392,37.640586
1157,[1669],11373,중계역,127.065326,37.642974
1158,[1636 1678],11257,백병원,127.062882,37.648018
1159,[1636],11256,상계주공4단지,127.061765,37.650775
1160,[1673],11255,상계주공6단지,127.061145,37.653184
1161,[1690],11185,도봉면허시험장,127.059966,37.657447
1162,[1686],11183,상계주공7단지,127.059114,37.660367
1163,[1686 4019],11187,상계주공7단지,127.059816,37.660905
1164,[],11188,상계주공7단지.광림교회앞,127.062782,37.660497
1165,[1691],11193,온곡중학교노원정보도서관,127.064393,37.659201
1166,[4003],11208,상계초등학교,127.065774,37.657587
1167,[1637 1653],11210,노원역9번출구,127.061986,37.656087
1168,[],11244,상계주공3단지,127.060908,37.652096
1169,[1636],11245,상계주공2단지,127.06162,37.649637
1170,[1668],11246,상계주공1단지,127.06283,37.647128
1171,[1669 2921],11366,중계역,127.064435,37.643864
1172,[1650 2919 4036],11367,노원구민의전당,127.066418,37.639391
1173,[1616 4007 4036],11447,하계역,127.067663,37.636667
1174,[1616],11448,하계장미아파트,127.068804,37.634079
1175,[],11160,서울과학기술대입구,127.071466,37.628291
1176,[1608],11162,공릉역4번출구,127.072276,37.62675
1177,[2910],11102,공릉시장,127.073621,37.623116
1178,[1606 1684],11104,태릉입구역3번출구,127.074841,37.619425
1179,[1401 1471 4812],7101,극동늘푸른아파트,127.076404,37.614703
1180,[1407 1468 4812],7103,묵동삼거리.먹골역,127.07712,37.612557
1181,[1454 1469],7425,먹골역,127.077855,37.608937
1182,[1454],7105,한국전력동부지사,127.078196,37.607132
1183,[1433 1464 1472],7107,지하철7호선중화역,127.079156,37.602649
1184,[1429 1442],7109,국민은행중화동지점,127.079862,37.598842
1185,[1446 4803],7111,상봉2동복합청사.도서관,127.079978,37.591891
1186,[],7113,면목2동주민센터,127.079859,37.589383
1187,[1440],7115,면목2동,127.079768,37.587297
1188,[1437 1440],7117,면목5동주민센터,127.079665,37.585067
1189,[1437],7465,늘푸른근린공원,127.079641,37.583108
1190,[1445 1480],7119,면목신우아파트,127.079441,37.580271
1191,[1444],7121,면목119안전센터,127.079909,37.573522
1192,[553],5121,면곡시장,127.079583,37.570277
1193,[3879],5123,중곡아파트,127.077177,37.565796
1194,[],5102,군자교,127.075229,37.562386
1195,[ 540 3500 3518],5253,능동사거리.군자역,127.07882,37.556322
1196,[3573],5252,능동교회앞,127.076993,37.552874
1197,[ 571 3524 3529],5251,어린이대공원앞.세종대학교,127.07544,37.549752
1198,[ 500  584 3581 3853 3860],5227,어린이대공원역.화양천주교회,127.073628,37.546622
1199,[],5228,서울화양초등학교,127.072222,37.543765
1200,[3534],5229,건대입구역사거리.건대병원,127.070908,37.540974
1201,[3534],5230,건대입구역1번출구,127.068167,37.540896
1202,[514],4209,서울효사랑병원,127.063435,37.541498
1203,[],4190,경수중학교,127.062197,37.539421
1204,[3506],4189,영동대교북단,127.060642,37.536769
1205,[],23169,영동교입구,127.055358,37.522334
1206,[2312 2354],23170,청담역.경기고교,127.056211,37.520765
1207,[2315 2418 2419 3605],23189,봉은사.삼성1파출소앞,127.059435,37.514968
1208,[],23198,무역센터,127.061396,37.511098
1209,[2316 2322 2355],23201,한국무역센터.삼성역,127.061701,37.508667
1210,[2319 2348],23217,포스코건너편,127.055427,37.506683
1211,[2332],23218,선릉역,127.050205,37.505143
1212,[2328 2329 2357],23277,서울상록회관.한국기술센터,127.044057,37.503232
1213,[2349],23280,아가방빌딩.하나은행,127.038633,37.501541
1214,[2410 2430],23283,역삼역,127.035079,37.500442
1215,[2407],23284,강남역12번출구,127.029839,37.498829
1216,[2231],22167,강남역.강남역사거리,127.026604,37.497784
1217,[2231 2520 4305],22168,서초동진흥아파트,127.022775,37.496579
1218,[2520 2521],22169,서초동유원아파트,127.019902,37.495708
1219,[2239 2279],22170,지하철2호선교대역4출구,127.015839,37.494473
1220,[],22161,지하철3호선교대역,127.013818,37.491824
1221,[],22158,서울교대사거리,127.014648,37.487385
1222,[2237 2297],22156,남부터미널.한일시멘트,127.014218,37.484732
1223,[4304],22146,서초중학교,127.008538,37.483605
1224,[],22148,서울고등학교,127.005,37.48293
1225,[2235],22228,방배동신동아아파트,127.0017,37.482308
1226,[4318],22247,현대멤피스2차아파트,126.998445,37.479814
1227,[],22245,방배그랑자이아파트,127.000329,37.477068
1228,[2225],22255,성뒤마을.교육연수원,126.994633,37.473747
1229,[],22340,방배동래미안타워.동덕여중고,126.990551,37.474718
1230,[2281],22257,대항병원.연세사랑병원,126.987107,37.475642
1231,[3815],20141,사당1동관악시장앞,126.977952,37.47679
1232,[],20142,예술인마을,126.972845,37.476049
1233,[2165 2167 3305],21101,서울미술고.인헌중고,126.965554,37.476466
1234,[2122 2148 3813 3304],21102,낙성대입구,126.961876,37.47791
1235,[2198 3810],21103,행운동주민센터,126.956869,37.479844
1236,[2112 2116 2171 3311],21104,서울대입구역5번출구,126.951014,37.481628
1237,[2179 3812],21105,KT관악지점,126.947311,37.481963
1238,[2108 2169 2189],21106,봉천역.관악초등학교,126.943335,37.482367
1239,[2137 2190 2196],21107,KT&G관악지점,126.937313,37.484475
1240,[2164 2195 3807],21261,관악우체국(양지병원),126.933157,37.484848
1241,[2102 2135 2136],21350,신림사거리.신림역,126.928276,37.484199
1242,[3803],21109,남부초등학교,126.922286,37.483389
1243,[],21110,호림박물관,126.918556,37.482707
1244,[3814],21111,난곡입구,126.915614,37.482211
1245,[2156 2170],21112,관악구보훈회관.신림푸르지오,126.91124,37.481362
1246,[2156],21113,천주교성령봉사회관.등불교회,126.907958,37.480755
1247,[],21114,KT구로지사,126.905136,37.480245
1248,[1924],17230,삼부르네상스.효성아파트,126.894824,37.47867
1249,[],17249,가리봉파출소,126.891862,37.479221
1250,[1812],17389,디지털단지오거리,126.888753,37.480115
1251,[1907],17242,구일우성아파트,126.875826,37.489743
1252,[],38003,철산리버빌아파트,126.867046,37.492702
1253,[3912],17233,개봉역,126.856377,37.493862
1254,[1933],17235,개봉1동사거리.개봉푸르지오아파트,126.847261,37.500814
1255,[743 760],15228,신정학마을아파트,126.843963,37.507421
1256,[743],15362,신정현대아파트.서부트럭터미널,126.842007,37.509011
1257,[],15373,양천공영차고지,126.837237,37.508418
1258,[],15378,양천공영차고지,126.837657,37.508703
1259,[750],15363,대일관광고.푸른마을3단지,126.836363,37.511076
1260,[750],15399,푸른마을1단지.이든채아파트,126.835388,37.512653
1261,[],15323,양천중앙도서관.푸른마을2단지,126.834091,37.514191
1262,[720],15325,신월시영아파트.강월초등학교,126.83553,37.515731
1263,[712],15329,금실어린이공원,126.837774,37.517954
1264,[],15354,신월시영아파트중문,126.836831,37.519011
1265,[],15366,신월문화체육센터,126.836482,37.520079
1266,[ 745 4520],15222,한빛종합사회복지관,126.839112,37.521161
1267,[ 745 4520],15221,강서초등학교,126.841688,37.521764
1268,[],15220,신월2동주민센터입구,126.845554,37.52268
1269,[725 737],15219,양강중학교,126.849994,37.523711
1270,[],15274,신정역(은행정).신정4동주민센터,126.854299,37.52463
1271,[],15273,신서고등학교.영상고등학교입구,126.859973,37.525396
1272,[770],15272,목동역.목동오거리,126.863107,37.525806
1273,[770],15160,목동역.홍익병원,126.864344,37.527346
1274,[ 719 1140],15101,홍익병원목동관,126.864038,37.530728
1275,[701],15111,목동사거리,126.863836,37.53327
1276,[1139],15112,영도중.강서고입구.기아양서대리점,126.863622,37.536174
1277,[775],15113,목동시장.대일고교.배광교회,126.863841,37.539005
1278,[ 752 1137],15126,목동성원아파트,126.863175,37.542295
1279,[1135 1136],15127,목3동주민센터.현대아이파크.실로암안과,126.862401,37.544833
1280,[ 742 1132],15128,목3동시장.강서도서관,126.863937,37.549695
1281,[ 774 1170],16004,등촌역.강서보건소,126.8676,37.549411
1282,[ 700  773 1169],16002,염창역.서울도시가스,126.875005,37.546964
1283,[],19217,안양천입구,126.883667,37.547306
1284,[227],19218,양평동한솔아파트,126.890347,37.543917
1285,[],19214,양평한신아파트.선유도공원입구,126.894428,37.541649
1286,[106],14011,합정역,126.912832,37.548874
1287,[108],14013,서교동,126.919582,37.553637
1288,[113 114],14015,홍대입구역,126.923196,37.556373
1289,[115 493],14061,동교동삼거리,126.928459,37.55806
1290,[ 128  129  130 3116],14062,신촌오거리.현대백화점,126.935893,37.555397
1291,[136],14063,신촌오거리.2호선신촌역,126.940144,37.556066
1292,[137 159 436],14064,이대역,126.944594,37.556613
1293,[3100],14067,웨딩타운,126.951517,37.557092
1294,[ 142 3104],14068,아현역,126.954747,37.557298
1295,[ 180 3114 4752],2107,종근당.충정로역,126.964481,37.559513
1296,[370],2133,서소문,126.974887,37.563207
1297,[ 466  468 4796  312  311],2641,시청광장,126.978763,37.565207
1298,[ 318  320  433 4762],2139,우리은행종로지점,126.982929,37.567519
1299,[ 454 3408],1013,종로2가,126.985543,37.570139
1300,[ 328  334  335 3432],1015,종로3가.탑골공원,126.989565,37.570245
1301,[ 397 3411 3412],1017,종로4가.종묘,126.994722,37.570507
1302,[338 339 397 453],1019,종로5가.광장시장,126.99885,37.570757
1303,[ 452 3404 3414],1021,종로6가.동대문종합시장,127.003464,37.570962
1304,[ 474 4765],2173,동대문역사문화공원,127.008356,37.567354
1305,[347 474 476],2235,동대문역사문화공원,127.009109,37.565411
1306,[383],2178,충무아트센터.스포츠센터.중부소방서,127.014741,37.565018
1307,[],2182,신당역.중앙시장앞,127.01948,37.565492
1308,[3514],2184,성동고등학교,127.022548,37.565181
1309,[3514],2252,신당파인힐하나유보라,127.024742,37.564939
1310,[ 520 3513 3547],4101,상왕십리역,127.029241,37.564246
1311,[521],4109,왕십리2동주민센터,127.033263,37.56245
1312,[559],4133,왕십리역,127.036192,37.559947
1313,[ 525 3557 3561],4136,행당1동주민센터.성동소방서,127.038627,37.558152
1314,[3545],4129,한양대정문,127.043129,37.556388
1315,[3538 4370],4186,성동교남단,127.043963,37.550508
1316,[ 512 3548],4236,뚝섬역8번출구,127.046113,37.547438
1317,[ 513 3548 4353],4238,뚝섬역5번출구,127.049012,37.546472
1318,[567 589],4253,성수역4번출구,127.055005,37.54462
1319,[514],4256,성수사거리,127.062395,37.542379
1320,[3534],5217,건대입구역6번출구,127.067279,37.540827
1321,[3534 3569],5232,건대입구역사거리.건대병원,127.071264,37.540981
1322,[ 500 3581 3860],5234,어린이대공원역.화양천주교회,127.073588,37.545904
1323,[3573],5140,어린이대공원앞,127.077031,37.552046
1324,[ 540 3518],5141,능동사거리.군자역,127.078635,37.555177
1325,[],5113,중곡2동주민센터앞,127.081155,37.55984
1326,[3517],5114,중곡동성당앞,127.082847,37.56309
1327,[3517],5115,종합의료복합단지,127.08336,37.563888
1328,[ 572 3502],5133,중곡역.국립정신건강센터,127.084545,37.566046
1329,[3510],5132,용곡삼거리,127.08559,37.567933
1330,[],7210,용마산하늘채아파트,127.086307,37.571024
1331,[1426 1427 1463],7208,용마산역,127.086671,37.573382
1332,[],7206,용마폭포공원,127.088742,37.575692
1333,[1410],7204,면목동금호어울림아파트,127.09064,37.57772
1334,[4811],7201,한양수자인사가정파크,127.092816,37.580015
1335,[4811],7199,면중초등학교,127.093463,37.581231
1336,[],7197,중화중학교,127.09405,37.583998
1337,[],7198,중화중학교.다문화가족지원센터,127.094165,37.584755
1338,[],7200,면중초등학교,127.093329,37.582269
1339,[],7203,면목동금호어울림아파트,127.091822,37.579302
1340,[1410],7205,면목동대원칸타빌아파트,127.090077,37.577572
1341,[],7207,용마폭포공원,127.088548,37.575927
1342,[1426 1427 1463],7209,용마산역,127.086398,37.573506
1343,[],7211,용마산하늘채아파트,127.08602,37.571258
1344,[3510],5271,용곡삼거리,127.0856,37.568578
1345,[3502],5270,중곡역.국립정신건강센터,127.084325,37.566229
1346,[3502],5269,종합의료복합단지,127.083395,37.564527
1347,[3517],5268,중곡동성당,127.082525,37.562964
1348,[],5112,중곡2동주민센터앞,127.080855,37.559884
1349,[ 540 3500 3518],5253,능동사거리.군자역,127.07882,37.556322
1350,[3573],5252,능동교회앞,127.076993,37.552874
1351,[ 571 3524 3529],5251,어린이대공원앞.세종대학교,127.07544,37.549752
1352,[ 500  584 3581 3853 3860],5227,어린이대공원역.화양천주교회,127.073628,37.546622
1353,[],5228,서울화양초등학교,127.072222,37.543765
1354,[3534],5229,건대입구역사거리.건대병원,127.070908,37.540974
1355,[3534],5230,건대입구역1번출구,127.068167,37.540896
1356,[514],4257,성수사거리,127.062548,37.542781
1357,[587],4240,성수역1번출구,127.053632,37.545431
1358,[ 513 3548 4353],4239,뚝섬역4번출구,127.049365,37.546716
1359,[ 512 3548],4237,뚝섬역2번출구,127.046846,37.547575
1360,[ 512 3538 4370],4185,성동교남단,127.044485,37.549832
1361,[3545],4130,한양대정문앞,127.04332,37.556773
1362,[3561],4137,서울숲삼부아파트,127.037949,37.558723
1363,[521 559],4134,왕십리역,127.036267,37.560337
1364,[],4110,코스모타워.서울신용보증재단성동지점,127.032903,37.562982
1365,[ 520 3513 3547],4102,상왕십리역,127.028681,37.564694
1366,[3514],4103,왕십리센트라스아파트,127.025039,37.565159
1367,[3514],2183,성동고등학교,127.022057,37.565564
1368,[],2181,신당역.중앙시장앞,127.018743,37.565728
1369,[],2177,충무아트센터.스포츠센터.중부소방서,127.014046,37.565193
1370,[ 346  474 4765],2174,동대문역사문화공원,127.009023,37.567604
1371,[452 455 457],1022,종로6가.동대문종합시장,127.005714,37.571127
1372,[338 339 453],1020,종로5가.광장시장,126.999335,37.570881
1373,[ 338  397 3411 3412],1018,종로4가.종묘,126.995284,37.570627
1374,[ 328  334  335 3432],1016,종로3가.탑골공원,126.989988,37.570361
1375,[ 328  454 3432],1014,종로2가,126.986247,37.570257
1376,[ 318  320  433 4762 4774],2246,을지로입구역.광교,126.982474,37.567558
1377,[ 433  466 4762 4774 4796],2157,을지로입구.시청입구,126.981171,37.566138
1378,[370 312],2134,서소문,126.97534,37.563675
1379,[ 180 3114 4752],13137,충정로역2호선,126.964027,37.559611
1380,[ 142 3104],13044,아현역,126.956593,37.557425
1381,[3100],13042,웨딩타운,126.952408,37.557227
1382,[ 159  436 3133],13025,이대역,126.947271,37.556876
1383,[ 129 3116],13023,신촌오거리.2호선신촌역,126.938982,37.555788
1384,[128 130],13021,신촌오거리.현대백화점,126.934504,37.555983
1385,[493],13019,동교동삼거리,126.92952,37.557765
1386,[ 113  114 3010],14016,홍대입구역,126.924589,37.557477
1387,[3009],14014,서교동,126.920236,37.554249
1388,[104 105 106],14012,합정역,126.913997,37.549682
1389,[],19216,양평한신아파트.선유도공원입구,126.894879,37.541864
1390,[],19215,영등포아리수정수센터,126.884113,37.547524
1391,[ 773 1169],16001,염창역.서울도시가스,126.875881,37.547097
1392,[ 774 1170],16003,등촌역.강서보건소,126.868652,37.549005
1393,[],16173,영일고등학교.강서도서관,126.863355,37.548989
1394,[1135 1136],16174,아이파크아파트.백석중학교.실로암안과,126.862141,37.545145
1395,[ 752 1137],16175,등촌2동주민센터.등촌동대림아파트,126.86297,37.541942
1396,[ 775 1137],16176,대일고교.임광아파트.배광교회,126.863568,37.539791
1397,[ 775 1139],16177,용문사.시립화곡청소년센터,126.863346,37.537097
1398,[ 701  719 1140],16179,목동사거리,126.863609,37.531634
1399,[],15284,목동역.홍익병원,126.863915,37.52805
1400,[770],15285,목동역.목동오거리,126.862791,37.525959
1401,[],15286,신서고교.영상고교입구,126.860399,37.525653
1402,[],15287,신정역(은행정).신정4동주민센터,126.854236,37.524828
1403,[725 737],15311,양강중학교,126.849662,37.523831
1404,[],15312,신월2동주민센터입구.경창전통시장,126.846188,37.523024
1405,[ 745 4520],15313,강서초등학교,126.841889,37.522033
1406,[ 745 4520],15314,한빛종합사회복지관,126.838874,37.52134
1407,[],15295,신월문화체육센터,126.836313,37.520207
1408,[],15355,신월시영아파트중문,126.836405,37.519102
1409,[712],15330,금실어린이공원,126.837853,37.517429
1410,[720],15326,신월시영아파트.강월초등학교,126.835305,37.515937
1411,[],15324,양천중앙도서관.푸른마을2단지,126.833988,37.514032
1412,[750],15405,푸른마을1단지.이든채아파트,126.83488,37.512878
1413,[750],15364,대일관광고.푸른마을3단지,126.835885,37.511319
1414,[],15373,양천공영차고지,126.837237,37.508418
1415,[1200],16435,개화역광역환승센터,126.797978,37.57822
1416,[1200],16170,개화역1번출구.개화검문소,126.799788,37.578494
1417,[1178 5053],16287,개화산역,126.806083,37.572429
1418,[1102],16285,방화사거리,126.810492,37.573086
1419,[1102],16283,방화동동부센트레빌아파트,126.813864,37.573323
1420,[1106],16432,신방화사거리,126.816446,37.572863
1421,[3754 3772],16306,서울항공비즈니스고등학교,126.816379,37.568965
1422,[1149 3754 3757],16394,신방화역5번출구,126.817558,37.567396
1423,[1111 1165],16395,마곡엠밸리6.7단지.마곡중학교,126.821254,37.567086
1424,[2715],16396,마곡나루역,126.82594,37.56678
1425,[2701 2728],16386,마곡나루역5번출구.서울식물원,126.827494,37.56505
1426,[1190 1191 1198],16397,마곡역,126.826882,37.561222
1427,[1152 1191 2720 5055 5056 5057],16387,마곡역교차로,126.828436,37.559368
1428,[1197 2730 3759 3760 5066],16388,이대서울병원,126.834559,37.558745
1429,[1124 1153 3760],16393,발산역7번출구,126.837825,37.557884
1430,[1124 3760 5061],16218,발산역.우장산힐스테이트,126.837484,37.556766
1431,[1125],16216,명덕고등학교.서울스타병원,126.836372,37.553291
1432,[1126],16214,우장산역,126.836129,37.549803
1433,[1126 1199 3786 5073],16211,화곡중고등학교,126.836132,37.54718
1434,[3779],16210,대원시장,126.837313,37.544525
1435,[1129 3779],16208,화곡역8번출구,126.838889,37.542929
1436,[1128 1129],16205,화곡역.현대주유소,126.840945,37.540648
1437,[2737],16192,까치산역4번출구,126.846193,37.532239
1438,[1141 1145],16186,KT강서지사,126.847517,37.529972
1439,[],15274,신정역(은행정).신정4동주민센터,126.854299,37.52463
1440,[],15273,신서고등학교.영상고등학교입구,126.859973,37.525396
1441,[770],15272,목동역.목동오거리,126.863107,37.525806
1442,[770],15254,목동역,126.865566,37.525709
1443,[770],15265,목동7단지,126.866887,37.525534
1444,[792],15264,목동대학학원,126.872702,37.524632
1445,[703 762 765],15173,오목교역.동신한방병원,126.876922,37.524085
1446,[275],19204,관악고등학교,126.884059,37.522994
1447,[275],19203,양평신동아아파트,126.887357,37.52248
1448,[ 264 4588],19166,교보앞,126.89207,37.521721
1449,[265],19163,당산동진로아파트,126.896991,37.521002
1450,[266 277],19118,김안과병원,126.903026,37.520071
1451,[274],19821,경방타임스퀘어.신세계백화점,126.905932,37.517298
1452,[274],19114,영등포역,126.909151,37.517087
1453,[258 276],19279,신길역 5호선,126.914888,37.518398
1454,[4559],19300,신길역1호선,126.916637,37.516759
1455,[257],19226,신길새마을금고,126.920035,37.513641
1456,[2080],19296,대방역,126.923495,37.512907
1457,[2081],20007,현대아파트,126.931437,37.513174
1458,[2007],20111,KT동작지사,126.93566,37.51304
1459,[2050],20240,동작구청정문,126.940062,37.512377
1460,[],20190,동작구청.노량진초등학교앞,126.940037,37.510373
1461,[],20192,장성교회,126.939968,37.508211
1462,[2013 2020 4152],20152,동작문화복지센터.동작보건소,126.940791,37.504938
1463,[2084],20154,상도노빌리티아파트,126.945792,37.504761
1464,[2024 2088],20160,상도역,126.948623,37.501627
1465,[],20162,상도동중앙하이츠빌.상도전통시장,126.951185,37.498813
1466,[2069],20164,숭실대입구역,126.952864,37.496745
1467,[2094],20169,숭실대정문앞,126.957055,37.49515
1468,[],20171,숭실대별관앞,126.960293,37.494639
1469,[],20254,사당롯데캐슬골든포레.사당해그린,126.962506,37.493015
1470,[2068],20173,사당5치안센터,126.965649,37.489028
1471,[2041 2062 2068],20175,총신대,126.966405,37.487752
1472,[2041 2062],20176,사당중학교,126.968018,37.486427
1473,[2060],20179,남성역,126.970614,37.484716
1474,[2060],20181,남성역골목시장,126.973039,37.483506
1475,[2090 2091],20252,사당동대아신협앞,126.976119,37.483264
1476,[2090 2091],20182,남성초등학교,126.97911,37.484155
1477,[2032 2082],20184,이수역9번출구,126.980258,37.484618
1478,[2082 2229 2230],22385,이수역,126.984003,37.48546
1479,[2229],22386,방배초등학교,126.986383,37.485685
1480,[2283],22387,방배고개,126.990302,37.4865
1481,[2271],22415,내방역1번출구,126.9948,37.487903
1482,[],22608,서리풀문화광장,127.00519,37.49091
1483,[2266 2502],22136,서초역1번출구,127.0087,37.491929
1484,[2239 2279],22103,지하철2호선교대역2,127.015234,37.493901
1485,[2520 2521],22104,서초동유원아파트,127.020216,37.495457
1486,[2231],22114,롯데칠성,127.024004,37.496657
1487,[2231],22339,강남역,127.026851,37.497501
1488,[2407],23287,강남역.역삼세무서,127.029148,37.498136
1489,[2410],23288,역삼역.포스코타워역삼,127.03379,37.499572
1490,[2349],23305,한서병원,127.038818,37.501137
1491,[],23299,역삼동성당.역삼자이아파트,127.043795,37.499879
1492,[],23297,래미안.그레이튼.아파트,127.045614,37.495952
1493,[2334 2336 2350],23472,도곡중학교.강남세브란스병원,127.046722,37.493602
1494,[2396],23325,도곡동개포한신아파트,127.05029,37.487047
1495,[2339 2358],23363,현대아파트,127.052829,37.482265
1496,[2358 2394 2395],23364,개포래미안포레스트,127.054044,37.480368
1497,[2391],23445,개포우성아파트,127.057864,37.476564
1498,[2392],23468,도곡교회.인바디빌딩,127.055459,37.474434
1499,[2258 2393],23365,능인선원앞,127.052254,37.472425
1500,[],22303,구룡사앞,127.048848,37.47021
1501,[2539],22378,도로교통공단서울지부.코트라,127.044389,37.466241
1502,[],22367,염곡동구룡사,127.047211,37.468475
1503,[2258 2393],23367,능인선원앞,127.052214,37.47177
1504,[2392],23470,도곡교회.인바디빌딩.건너,127.05624,37.474425
1505,[2391],23338,개포파크빌리지,127.05836,37.476751
1506,[2394 2395],23459,개포주공1단지아파트,127.056961,37.478424
1507,[2358],23339,하나은행사거리,127.054219,37.480856
1508,[2339 2358],23340,현대아파트경남아파트,127.053195,37.482727
1509,[2396],23326,우성캐릭터빌아파트,127.050801,37.48701
1510,[2334 2336 2350],23469,강남세브란스병원,127.047323,37.493399
1511,[],23296,역삼2동주민센터.대림역삼아파트,127.045993,37.496245
1512,[2331],23298,역삼자이아파트,127.044257,37.499804
1513,[2349],23280,아가방빌딩.하나은행,127.038633,37.501541
1514,[2410 2430],23283,역삼역,127.035079,37.500442
1515,[2407],23284,강남역12번출구,127.029839,37.498829
1516,[2231],22167,강남역.강남역사거리,127.026604,37.497784
1517,[2231 2520 4305],22168,서초동진흥아파트,127.022775,37.496579
1518,[2520 2521],22169,서초동유원아파트,127.019902,37.495708
1519,[2239 2279],22170,지하철2호선교대역4출구,127.015839,37.494473
1520,[2239 2279],22134,교대역10번출구,127.012993,37.493611
1521,[2266 2502],22426,대법원앞,127.006355,37.49159
1522,[2227 2271],22391,내방역,126.992658,37.487447
1523,[2283],22392,방배고개,126.988852,37.486295
1524,[2229 2230],22393,이수역,126.984784,37.485791
1525,[2032 2082],20185,이수역10번출구,126.980187,37.484833
1526,[2090 2091],20183,남성초등학교,126.97843,37.484299
1527,[],20180,남성역골목시장,126.97342,37.483569
1528,[2060],20178,남성역,126.970747,37.484929
1529,[2041 2062],20177,사당중학교,126.968179,37.486637
1530,[2068],20174,총신대,126.96618,37.488742
1531,[],20172,숭실대별관앞,126.960022,37.49493
1532,[2094],20170,숭실대정문앞,126.957281,37.495318
1533,[2069],20166,숭실대입구역,126.953733,37.496461
1534,[],20163,상도동중앙하이츠빌.상도전통시장,126.951774,37.49869
1535,[2024 2088],20161,상도역,126.94952,37.501249
1536,[2084],20155,상도노빌리티아파트,126.946868,37.504327
1537,[4152],20153,동작문화복지센터.동작보건소,126.941899,37.505277
1538,[2013],20193,청화병원,126.94008,37.507245
1539,[],20191,동작구청.노량진초등학교앞,126.940337,37.510453
1540,[2050],20010,노량진수산시장.CTS기독교TV,126.938866,37.51348
1541,[2007],20008,현대아파트.유한양행,126.932374,37.513237
1542,[ 259 2080],19254,대방역,126.924222,37.513005
1543,[257],19227,신길새마을금고,126.919513,37.514083
1544,[4559],19225,신길역1호선,126.916956,37.516815
1545,[274],19112,경방타임스퀘어.신세계백화점,126.90624,37.517508
1546,[266],19119,김안과병원,126.902834,37.520416
1547,[265],19162,당산동진로아파트,126.896878,37.521326
1548,[ 264 3207 4588],19165,양남동로타리,126.891779,37.52212
1549,[3207 4588],19202,양평1동주민센터,126.888778,37.522566
1550,[275],19205,관악고등학교,126.884849,37.523162
1551,[703 762 765],15168,오목교역.동신한방병원,126.876937,37.524421
1552,[765],15167,목동대학학원,126.873444,37.524927
1553,[791 792],15166,목동7단지.종로학원,126.869165,37.52553
1554,[770],15285,목동역.목동오거리,126.862791,37.525959
1555,[],15286,신서고교.영상고교입구,126.860399,37.525653
1556,[],15287,신정역(은행정).신정4동주민센터,126.854236,37.524828
1557,[725],15288,양강중학교,126.850757,37.524667
1558,[1141 1145],16187,KT강서지사,126.847881,37.529954
1559,[2737],16191,까치산역2번출구,126.846846,37.531771
1560,[1128 1129],16206,화곡역,126.841122,37.540953
1561,[1128 1129 3779],16207,화곡역1번출구,126.839679,37.542598
1562,[3779],16209,대원시장,126.838226,37.544063
1563,[1126 1199 3786 5073],16212,화곡중고등학교,126.836454,37.54719
1564,[1126 1199],16213,우장산역,126.836503,37.549241
1565,[1125],16215,명덕고등학교.서울스타병원,126.836701,37.55312
1566,[5061],16217,발산역.우장산힐스테이트,126.837625,37.556039
1567,[1124 1153 1197 2730 3759 3760],16429,발산역9번출구,126.836689,37.558852
1568,[1193 2720],16400,마곡동로사거리,126.831496,37.559467
1569,[1190 1191 1198],16398,마곡역,126.827173,37.561329
1570,[2715 2728],16399,마곡나루역1번출구.웰튼병원,126.826556,37.566956
1571,[1111 1112],16702,마곡엠밸리7단지.712동,126.823542,37.567238
1572,[1111 1149 1165 2702],16703,신방화역4번출구.마곡중학교,126.820053,37.567502
1573,[3772],16305,서울항공비즈니스고등학교,126.816832,37.569517
1574,[],16284,방화동동부센트레빌아파트,126.814217,37.573528
1575,[1102],16286,방화사거리,126.809892,37.573287
1576,[1178],16288,개화산역,126.805293,37.572771
1577,[],16167,개화119안전센터,126.8026,37.575195
1578,[1200],16434,개화역광역환승센터,126.797811,37.57845
1579,[],35331,은평공영차고지,126.883123,37.591549
1580,[],12315,덕은교.은평차고지앞,126.883447,37.589961
1581,[403 425],14112,DMC첨단산업센터,126.884787,37.585598
1582,[405 407 489],14291,상암고등학교,126.884046,37.58178
1583,[ 408 3006],14289,월드컵파크5단지,126.886518,37.580333
1584,[ 411  412 4214],14287,상암DMC홍보관.YTN,126.891288,37.577461
1585,[416],14166,상암초등학교,126.89328,37.576474
1586,[416],14165,상암휴먼시아아파트,126.895379,37.575237
1587,[199 420],14103,마포농수산물시장.월드컵공원,126.896773,37.566142
1588,[ 421 3002 3005],14102,마포구청,126.90189,37.564902
1589,[154],14253,마포구청역입구,126.905725,37.560595
1590,[184],14250,망원시장.망원동월드컵시장입구,126.908518,37.557521
1591,[102 103],14249,기업은행서교동지점(최규하대통령가옥),126.910896,37.55487
1592,[497],14246,성산초등학교입구,126.911868,37.55313
1593,[497],14245,마포한강푸르지오,126.912592,37.550787
1594,[104 105],14220,합정역,126.915307,37.550218
1595,[108],14013,서교동,126.919582,37.553637
1596,[113 114],14015,홍대입구역,126.923196,37.556373
1597,[115 493],14061,동교동삼거리,126.928459,37.55806
1598,[128 130],14228,신촌역,126.934761,37.555638
1599,[ 127  128  129  130 3116],14168,신촌로터리,126.936883,37.553809
1600,[124 127],14171,서강대학교,126.937315,37.551827
1601,[125],14172,광성중고등학교,126.938672,37.549355
1602,[437],14174,대흥역,126.940989,37.548107
1603,[],14176,용강초등학교,126.943515,37.546977
1604,[4222],14178,동도중학교.서울디자인고등학교,126.946571,37.545754
1605,[143],14180,공덕역1번출구,126.949321,37.544432
1606,[144 145],14150,공덕오거리,126.952949,37.542848
1607,[851],14336,용마루고개.브라운스톤공덕아파트,126.95705,37.540992
1608,[851],3178,용마루고개.효창파크푸르지오아파트,126.958552,37.5403
1609,[ 834 4627],3180,효창공원앞역.이봉창역사울림관,126.962498,37.538807
1610,[4627  868],3182,용산꿈나무종합타운.보건분소,126.964648,37.538295
1611,[850 868],3183,원효로제1동주민센터,126.967178,37.537597
1612,[812 847],3185,전쟁기념관,126.977336,37.534433
1613,[811 858],3187,녹사평역,126.985305,37.534758
1614,[831 843],3189,용산구청.이태원시장,126.989906,37.534063
1615,[],3191,이태원역4번출구.해밀턴호텔,126.993154,37.534277
1616,[ 857 4623],3193,이태원119안전센터,126.997195,37.534541
1617,[4612 4613],3195,한남동주민센터,127.000604,37.536707
1618,[ 802 4611],3197,한강진역.블루스퀘어,127.002107,37.540875
1619,[483],2237,버티고개,127.005818,37.547498
1620,[429],2197,송도병원앞,127.007719,37.550268
1621,[4777],2196,약수역7번출구.약수동주민센터,127.009298,37.552851
1622,[372 382 480],2192,약수역3번출구.약수하이츠,127.01138,37.55575
1623,[374],2189,신당동.청구역,127.013216,37.558948
1624,[],2188,신당동떡볶이타운.중구여성플라자,127.015191,37.56231
1625,[481 378],2180,성동공업고등학교앞,127.016129,37.568695
1626,[456],1041,동묘앞,127.018451,37.573726
1627,[363 613 671],6107,신설동역1번출구,127.023317,37.57663
1628,[1351],6178,대광고등학교앞,127.025562,37.579778
1629,[1308],6179,종암초등학교앞,127.029599,37.581619
1630,[ 614 4110],6181,용두시장앞,127.030161,37.579035
1631,[614],6103,용두동한국의류시험연구원,127.029114,37.577519
1632,[363 613 671],6028,신설동역,127.023843,37.575827
1633,[456],1044,동묘앞,127.019672,37.574243
1634,[481 378],2179,성동공업고등학교(무궁화회관),127.015756,37.568348
1635,[],2187,신당동떡볶이타운.중구여성플라자,127.015002,37.562628
1636,[374],2190,신당동.청구역,127.013032,37.559257
1637,[372 382 480],2191,약수역2번출구.가온도서관,127.011147,37.555981
1638,[ 372  382  480 4777],2195,약수역8번출구.신당사회복지관,127.009957,37.553865
1639,[429],2198,송도병원앞,127.007398,37.550227
1640,[483],2236,버티고개,127.006024,37.547804
1641,[],3158,장충단로입구,127.002202,37.545795
1642,[802],3196,한강진역.블루스퀘어,127.00167,37.540726
1643,[4612 4613],3194,한남동새마을금고,127.000321,37.536844
1644,[ 857 4623],3192,이태원119안전센터,126.996637,37.53475
1645,[],3190,이태원역1번출구.해밀턴호텔,126.992996,37.534518
1646,[831 843],3188,용산구청.이태원시장,126.9906,37.534363
1647,[811 858],3186,녹사평역,126.985333,37.535054
1648,[812 847 848],3184,전쟁기념관,126.976858,37.534759
1649,[4627  868],3181,용산꿈나무종합타운.보건분소,126.965,37.538427
1650,[ 834 4627],3179,효창공원앞역.이봉창역사울림관,126.962035,37.539208
1651,[851],3177,용마루고개(서울자동차고등학교),126.958465,37.540637
1652,[],14151,용마루고개.신공덕삼성아파트,126.955885,37.541871
1653,[144 145],14149,공덕오거리,126.953163,37.543073
1654,[ 143 4222],14179,공덕역2번출구,126.948182,37.545343
1655,[4222],14177,동도중학교.서울디자인고등학교,126.945401,37.546478
1656,[437],14175,대흥역,126.942974,37.547538
1657,[125 437],14173,광성중고등학교,126.93986,37.548952
1658,[124 125],14170,서강대학교,126.93797,37.5511
1659,[127 129 130],14169,신촌로터리,126.937268,37.553524
1660,[128 130],13021,신촌오거리.현대백화점,126.934504,37.555983
1661,[493],13019,동교동삼거리,126.92952,37.557765
1662,[ 113  114 3010],14016,홍대입구역,126.924589,37.557477
1663,[3009],14014,서교동,126.920236,37.554249
1664,[104 105],14219,합정역,126.91561,37.55106
1665,[104 105 497],14244,메세나폴리스,126.912943,37.550767
1666,[497],14247,성산초등학교입구,126.912262,37.553218
1667,[102 103],14248,기업은행서교동지점(최규하대통령가옥),126.911464,37.554792
1668,[184],14251,망원시장.망원동월드컵시장입구,126.908943,37.557591
1669,[154],14252,마포구청역입구,126.906365,37.560428
1670,[ 421 3002 3005],14101,마포구청.성산자동차검사소,126.902423,37.564954
1671,[199 420],14104,월드컵경기장남측.월드컵공원,126.896184,37.566721
1672,[416],14164,상암휴먼시아아파트,126.896201,37.575044
1673,[414 416],14167,상암초등학교,126.893493,37.576634
1674,[ 411 4214],14286,상암DMC홍보관.YTN,126.891323,37.577985
1675,[ 409  411 3006 4214],14307,누리꿈스퀘어.MBC,126.889637,37.578988
1676,[405 408 490],14288,월드컵파크5단지.상암중고등학교입구,126.886335,37.580921
1677,[ 489 4212],14290,상암DMC입구,126.882612,37.583431
1678,[403 425],14111,DMC첨단산업센터,126.885357,37.585242
1679,[],12314,덕은교.은평차고지앞,126.885614,37.588578
1680,[],12409,은평권역공영차고지,126.884322,37.591386
1681,[],12469,진관공영차고지,126.907926,37.646746
1682,[959],12010,은평뉴타운10단지,126.91373,37.643407
1683,[905],12112,구파발역.롯데몰,126.918634,37.636408
1684,[921 993],12014,박석고개.신도고등학교,126.919189,37.630865
1685,[],12016,세명컴퓨터고등학교,126.919996,37.625283
1686,[906],12203,연신내역.로데오거리,126.919655,37.618013
1687,[908],12204,은평연세병원,126.917632,37.614665
1688,[908 950],12205,구산역4번출구,126.917199,37.61212
1689,[932 950],12206,구산역3번출구.예일여고,126.91687,37.610769
1690,[931],12207,역말사거리,126.915143,37.60621
1691,[],12208,역촌초등학교,126.915573,37.602793
1692,[ 907 4665],12209,응암역2번출구,126.915861,37.600421
1693,[996],12167,응암역.신사오거리,126.915225,37.597936
1694,[],12168,신흥시장,126.914564,37.595401
1695,[912 989],12162,응암오거리,126.916147,37.590732
1696,[912],12163,은평문화예술정보학교,126.91848,37.588898
1697,[],12164,응암초등학교,126.920191,37.587534
1698,[ 163 3126],13220,명지전문대.충암중고등학교,126.923443,37.584813
1699,[163],13218,명지중고등학교,126.925558,37.582674
1700,[],13197,명지대삼거리,126.926363,37.58127
1701,[176],13195,명지대,126.924395,37.579913
1702,[3124],13193,DMC센트럴아이파크아파트,126.921707,37.578153
1703,[],13192,DMC에코자이아파트,126.919556,37.576434
1704,[3130 4255],13190,래미안루센티아.DMC쌍용,126.918147,37.575379
1705,[3123],13180,DMC.파크뷰자이,126.916111,37.573782
1706,[3121 4210],13182,모래내삼거리,126.913167,37.570865
1707,[155 179],13005,모래내시장.가좌역,126.915063,37.569077
1708,[195],13007,사천교,126.918145,37.567515
1709,[196],13110,연희104고지앞.구성산회관,126.923977,37.566169
1710,[],14226,연남동,126.927541,37.562522
1711,[115 493],14061,동교동삼거리,126.928459,37.55806
1712,[ 128  129  130 3116],14062,신촌오거리.현대백화점,126.935893,37.555397
1713,[136],14063,신촌오거리.2호선신촌역,126.940144,37.556066
1714,[137 159 436],14064,이대역,126.944594,37.556613
1715,[3100],14067,웨딩타운,126.951517,37.557092
1716,[ 142 3104],14068,아현역,126.954747,37.557298
1717,[ 180  198 3114],13045,충정로역,126.963492,37.561058
1718,[171 173],13047,서대문역사거리,126.966565,37.565579
1719,[ 300  307 4715],1007,서울역사박물관.경희궁앞,126.97038,37.569135
1720,[306 309 310 458],1120,광화문,126.976384,37.569845
1721,[4768  312  311],2286,시청앞.덕수궁,126.976836,37.566212
1722,[370],2131,삼성본관앞,126.975908,37.562052
1723,[445 485 444],2008,숭례문,126.973778,37.558639
1724,[ 379  442 4760],2004,서울역버스환승센터,126.972356,37.555446
1725,[820],3012,갈월동,126.971708,37.549534
1726,[828 838],3010,숙대입구역,126.972232,37.543756
1727,[812 847],3185,전쟁기념관,126.977336,37.534433
1728,[811 858],3187,녹사평역,126.985305,37.534758
1729,[4615],3154,용산구청.크라운호텔,126.991106,37.529612
1730,[4622],3156,한강중학교앞,126.992429,37.524503
1731,[4330],22381,반포대교남단.한강시민공원입구,126.999593,37.507614
1732,[2219 2525],22020,고속터미널,127.003793,37.505738
1733,[4307],22018,반포역,127.01104,37.507904
1734,[2303],22190,논현사거리.논현역4번출구,127.019682,37.510421
1735,[],22013,논현역,127.023032,37.507226
1736,[],22011,지하철2호선강남역,127.025438,37.501817
1737,[2231],22167,강남역.강남역사거리,127.026604,37.497784
1738,[2231 2520 4305],22168,서초동진흥아파트,127.022775,37.496579
1739,[2520 2521],22169,서초동유원아파트,127.019902,37.495708
1740,[2239 2279],22170,지하철2호선교대역4출구,127.015839,37.494473
1741,[],22161,지하철3호선교대역,127.013818,37.491824
1742,[],22158,서울교대사거리,127.014648,37.487385
1743,[2237 2297],22156,남부터미널.한일시멘트,127.014218,37.484732
1744,[4304],22146,서초중학교,127.008538,37.483605
1745,[],22148,서울고등학교,127.005,37.48293
1746,[2235],22228,방배동신동아아파트,127.0017,37.482308
1747,[4318],22247,현대멤피스2차아파트,126.998445,37.479814
1748,[],22245,방배그랑자이아파트,127.000329,37.477068
1749,[2225],22255,성뒤마을.교육연수원,126.994633,37.473747
1750,[],22340,방배동래미안타워.동덕여중고,126.990551,37.474718
1751,[2281],22257,대항병원.연세사랑병원,126.987107,37.475642
1752,[3815],20141,사당1동관악시장앞,126.977952,37.47679
1753,[],20142,예술인마을,126.972845,37.476049
1754,[2165 2167 3305],21101,서울미술고.인헌중고,126.965554,37.476466
1755,[2122 2148 3813 3304],21102,낙성대입구,126.961876,37.47791
1756,[2198 3810],21103,행운동주민센터,126.956869,37.479844
1757,[2112 2116 2171 3311],21104,서울대입구역5번출구,126.951014,37.481628
1758,[2179 3812],21105,KT관악지점,126.947311,37.481963
1759,[2108 2169 2189],21106,봉천역.관악초등학교,126.943335,37.482367
1760,[2137 2190 2196],21107,KT&G관악지점,126.937313,37.484475
1761,[2164 2195 3807],21261,관악우체국(양지병원),126.933157,37.484848
1762,[2135],21153,신림사거리,126.929638,37.482767
1763,[2140],21154,서원동문화교앞,126.932724,37.477918
1764,[2107],21155,서림동주민센터.신화단지,126.936357,37.475441
1765,[2141 2183],21156,삼성동시장,126.93296,37.472713
1766,[2139 2185 2191],21842,신림2동차고지,126.938671,37.470829
1767,[2139 2185 2191],21841,신림2동차고지,126.938321,37.470982
1768,[2139 2185 2191],21144,신성초등학교,126.937244,37.471
1769,[2141 2183],21145,영광메디컬센터,126.933686,37.473207
1770,[2107],21146,쑥고개입구,126.937495,37.476192
1771,[2140],21147,서원동문화교앞,126.932386,37.47865
1772,[2135 2136],21377,신림역2번출구,126.929897,37.483322
1773,[2164 2195 3807],21262,관악우체국.양지병원,126.933148,37.484452
1774,[2109 2137 2195 3807],21118,KT&G관악지점,126.936125,37.484533
1775,[2108 2169 2189],21119,봉천역.관악초등학교,126.943247,37.482009
1776,[2112 3812],21120,KT관악지점,126.948461,37.481483
1777,[2111],21121,봉천사거리,126.954698,37.480266
1778,[2186 2198 2199 3810],21122,낙성대동,126.957505,37.479184
1779,[2122 2186 3813 3304],21123,낙성대입구,126.960887,37.477844
1780,[2165 2167 3305],21124,인헌중고.서울미술고,126.966516,37.475682
1781,[],21125,예술인마을.사당초등학교,126.973989,37.47593
1782,[3815],21126,남서울농협남현동지점,126.977301,37.476371
1783,[2281],22258,대항병원.연세사랑병원,126.986765,37.475387
1784,[],22259,방배동래미안타워.동덕여중고,126.990656,37.474288
1785,[2225],22260,성뒤마을.교육연수원,126.996918,37.473326
1786,[],22244,경남임광아파트,127.000743,37.477032
1787,[4318],22246,서울지방법무사회,126.998755,37.48004
1788,[2235],22248,신동아아파트앞,127.001892,37.482005
1789,[4304],22149,서울고등학교,127.005579,37.482747
1790,[4304],22147,서초중학교,127.008805,37.483388
1791,[2237 2297],22157,남부터미널,127.015483,37.484672
1792,[2297],22102,서울교대사거리,127.01506,37.487329
1793,[],22101,지하철3호선교대역,127.01419,37.491782
1794,[2239 2279],22103,지하철2호선교대역2,127.015234,37.493901
1795,[2520 2521],22104,서초동유원아파트,127.020216,37.495457
1796,[2231],22114,롯데칠성,127.024004,37.496657
1797,[],22012,지하철2호선강남역,127.02637,37.500785
1798,[2302 2542],22014,논현역,127.023728,37.506367
1799,[],22183,논현사거리.논현역5번출구,127.01922,37.510648
1800,[],22017,반포역,127.012129,37.508342
1801,[2219],22019,고속터미널,127.005283,37.506292
1802,[4330],22382,반포대교남단.한강시민공원입구,127.00039,37.506944
1803,[4622],3155,한강중학교,126.992252,37.525475
1804,[4615],3153,용산구청.크라운호텔,126.991204,37.530284
1805,[811 858],3186,녹사평역,126.985333,37.535054
1806,[812 847 848],3184,전쟁기념관,126.976858,37.534759
1807,[ 848  849 4620],3328,삼각지역11번출구,126.974548,37.536204
1808,[828 835 838],3009,숙대입구역,126.972538,37.543296
1809,[807],3011,갈월동,126.972237,37.550976
1810,[ 379 4760],2007,서울역버스환승센터.강우규의거터,126.972971,37.555614
1811,[485 444],2122,숭례문,126.974044,37.55842
1812,[370],2128,시청앞,126.976574,37.562358
1813,[ 310 4768 4796  311],2507,프레스센터,126.977432,37.567357
1814,[303 306 308 309 458],1125,광화문,126.975837,37.570365
1815,[ 300  307 4715],1008,서울역사박물관.경희궁앞,126.970609,37.569412
1816,[171 173 394],1006,서대문역사거리,126.966893,37.566137
1817,[180],13046,충정로역,126.962699,37.560023
1818,[ 142 3104],13044,아현역,126.956593,37.557425
1819,[3100],13042,웨딩타운,126.952408,37.557227
1820,[ 159  436 3133],13025,이대역,126.947271,37.556876
1821,[ 129 3116],13023,신촌오거리.2호선신촌역,126.938982,37.555788
1822,[128 130],13021,신촌오거리.현대백화점,126.934504,37.555983
1823,[ 115 3010],13144,동교동삼거리연희동방면,126.927499,37.558658
1824,[],13147,연희동대우아파트,126.927955,37.562623
1825,[196],13111,연희104고지앞.구성산회관,126.924998,37.56655
1826,[ 195 3120],13109,사천교,126.917593,37.568082
1827,[ 155  179 3121 4210],13107,모래내시장.가좌역,126.914062,37.569869
1828,[3121 3123],13181,삼성래미안2차아파트,126.913812,37.57125
1829,[3123],13339,DMC.파크뷰자이,126.916449,37.573676
1830,[3130 4255],13341,DMC쌍용.래미안루센티아,126.918956,37.575593
1831,[3124],13191,명지대사거리,126.920646,37.577071
1832,[3124],13194,명지대,126.923549,37.579137
1833,[176],13196,명지대삼거리,126.925997,37.58082
1834,[163],13219,명지중고등학교,126.92579,37.582793
1835,[ 163 3126],13221,명지전문대.충암중고등학교,126.924081,37.584509
1836,[909],12155,응암초등학교,126.921124,37.587079
1837,[],12156,은평문화예술정보학교,126.91899,37.58879
1838,[912 989],12157,응암오거리,126.916552,37.590736
1839,[],12177,신흥시장,126.914896,37.595402
1840,[907 996],12178,응암역.신사오거리,126.915606,37.598107
1841,[],12179,역촌초등학교,126.916055,37.602181
1842,[931],12180,역말사거리,126.915559,37.606149
1843,[932 950],12181,구산역2번출구.예일여고,126.916903,37.609951
1844,[908 950],12182,구산역1번출구,126.917537,37.611658
1845,[908],12183,대조동주민센터,126.917936,37.614073
1846,[906 922],12184,연신내역.로데오거리,126.919996,37.617821
1847,[947],12015,세명컴퓨터고등학교,126.919973,37.624215
1848,[921 993],12013,박석고개.신도고등학교,126.919374,37.629919
1849,[905 960],12111,구파발역2번출구,126.918989,37.636768
1850,[959],12009,은평뉴타운10단지,126.915165,37.642948
1851,[],12470,진관공영차고지,126.908187,37.646608
